# Time (s),Altitude (m),Vertical velocity (m/s),Vertical acceleration (m/s²),Total velocity (m/s),Total acceleration (m/s²),Position East of launch (m),Position North of launch (m),Lateral distance (m),Lateral direction (°),Lateral velocity (m/s),Lateral acceleration (m/s²),Latitude (°),Longitude (°),Gravitational acceleration (m/s²),Angle of attack (°),Roll rate (°/s),Pitch rate (°/s),Yaw rate (°/s),Mass (g),Motor mass (g),Longitudinal moment of inertia (kg·m²),Rotational moment of inertia (kg·m²),CP location (cm),CG location (cm),Stability margin calibers (​),Mach number (​),Reynolds number (​),Thrust (N),Drag force (N),Drag coefficient (​),Axial drag coefficient (​),Friction drag coefficient (​),Pressure drag coefficient (​),Base drag coefficient (​),Normal force coefficient (​),Pitch moment coefficient (​),Yaw moment coefficient (​),Side force coefficient (​),Roll moment coefficient (​),Roll forcing coefficient (​),Roll damping coefficient (​),Pitch damping coefficient (​),Coriolis acceleration (m/s²),Reference length (cm),Reference area (cm²),Vertical orientation (zenith) (°),Lateral orientation (azimuth) (°),Wind velocity (m/s),Air temperature (°C),Air pressure (mbar),Speed of sound (m/s),Simulation time step (s),Computation time (s)
0.01,-2.205e-4,-0.044,-4.41,0.044,4.41,0,0,0,0,0,0,28.61,-80.6,9.788,91.096,0,0,0,3.007e4,8057.547,23.242,0.066,NaN,182.898,NaN,0.007,4.304e5,161.698,-3.946e-7,0.594,-1.034e-5,0.512,0.009,0.072,NaN,NaN,NaN,NaN,NaN,NaN,NaN,NaN,5.647e-6,13.081,134.391,90,0,2.305,5.9,856.197,334.874,0.01,0.003
0.02,3.173e-4,0.063,6.349,0.063,6.349,0,0,0,0,0,0,28.61,-80.6,9.788,88.413,0,0,0,3.006e4,8051.093,23.236,0.066,NaN,182.879,NaN,0.007,4.279e5,485.095,1.178e-6,0.594,3.123e-5,0.512,0.009,0.072,NaN,NaN,NaN,NaN,NaN,NaN,NaN,NaN,8.126e-6,13.081,134.391,90,0,2.291,5.9,856.197,334.874,0.01,0.005
0.03,0.002,0.235,17.112,0.235,17.112,0,0,0,0,0,0,28.61,-80.6,9.788,84.118,0,0,0,3.006e4,8044.64,23.231,0.066,NaN,182.86,NaN,0.007,4.274e5,808.492,5.716e-5,0.594,0.002,0.513,0.009,0.072,NaN,NaN,NaN,NaN,NaN,NaN,NaN,NaN,3.003e-5,13.081,134.391,90,0,2.277,5.9,856.197,334.874,0.01,0.006
0.04,0.006,0.513,27.88,0.513,27.88,0,0,0,0,0,0,28.61,-80.6,9.788,77.22,0,0,0,3.005e4,8038.187,23.226,0.066,NaN,182.841,NaN,0.007,4.333e5,1131.889,5.557e-4,0.593,0.014,0.511,0.009,0.072,NaN,NaN,NaN,NaN,NaN,NaN,NaN,NaN,6.572e-5,13.081,134.391,90,0,2.263,5.9,856.197,334.874,0.01,0.008
0.05,0.013,0.9,38.653,0.9,38.653,0,0,0,0,0,0,28.61,-80.6,9.788,68.196,0,0,0,3.004e4,8031.733,23.221,0.066,NaN,182.822,NaN,0.007,4.523e5,1455.286,0.003,0.588,0.063,0.506,0.009,0.072,NaN,NaN,NaN,NaN,NaN,NaN,NaN,NaN,1.152e-4,13.081,134.391,90,0,2.249,5.9,856.196,334.874,0.01,0.009
0.06,0.024,1.394,49.43,1.394,49.43,0,0,0,0,0,0,28.61,-80.6,9.788,57.984,0,0,0,3.004e4,8025.28,23.215,0.066,NaN,182.803,NaN,0.008,4.91e5,1778.683,0.008,0.579,0.171,0.498,0.009,0.072,NaN,NaN,NaN,NaN,NaN,NaN,NaN,NaN,1.785e-4,13.081,134.391,90,0,2.23,5.9,856.195,334.874,0.01,0.011
0.07,0.041,1.996,60.212,1.996,60.212,0,0,0,0,0,0,28.61,-80.6,9.788,47.911,0,0,0,3.003e4,8018.827,23.21,0.066,NaN,182.784,NaN,0.009,5.561e5,2102.08,0.02,0.566,0.32,0.485,0.009,0.072,NaN,NaN,NaN,NaN,NaN,NaN,NaN,NaN,2.556e-4,13.081,134.391,90,0,2.21,5.9,856.193,334.874,0.01,0.012
0.08,0.065,2.706,70.998,2.706,70.998,0,0,0,0,0,0,28.61,-80.6,9.788,38.988,0,0,0,3.002e4,8012.373,23.204,0.066,NaN,182.765,NaN,0.01,6.501e5,2425.477,0.04,0.551,0.465,0.469,0.009,0.072,NaN,NaN,NaN,NaN,NaN,NaN,NaN,NaN,3.465e-4,13.081,134.391,90,0,2.19,5.9,856.19,334.874,0.01,0.013
0.09,0.096,3.49,78.439,3.49,78.439,0,0,0,0,0,0,28.61,-80.6,9.788,31.88,0,0,0,3.001e4,8000.507,23.195,0.066,NaN,182.73,NaN,0.012,7.675e5,2647.848,0.069,0.535,0.566,0.453,0.009,0.072,NaN,NaN,NaN,NaN,NaN,NaN,NaN,NaN,4.469e-4,13.081,134.391,90,0,2.171,5.899,856.187,334.874,0.01,0.014
0.1,0.134,4.279,78.943,4.279,78.943,0,0,0,0,0,0,28.61,-80.6,9.788,26.687,0,0,0,3e4,7987.288,23.184,0.066,NaN,182.691,NaN,0.014,8.943e5,2661.853,0.102,0.521,0.618,0.439,0.009,0.072,NaN,NaN,NaN,NaN,NaN,NaN,NaN,NaN,5.479e-4,13.081,134.391,90,0,2.151,5.899,856.183,334.874,0.01,0.015
0.11,0.181,5.072,79.238,5.072,79.238,0,0,0,0,0,0,28.61,-80.6,9.788,23.224,0,0,0,2.998e4,7974.069,23.173,0.066,NaN,182.653,NaN,0.016,1.03e6,2669.543,0.139,0.509,0.636,0.427,0.009,0.072,NaN,NaN,NaN,NaN,NaN,NaN,NaN,NaN,6.493e-4,13.081,134.391,90,0,2.176,5.899,856.178,334.874,0.01,0.016
0.12,0.236,5.867,79.532,5.867,79.532,0,0,0,0,0,0,28.61,-80.6,9.788,20.567,0,0,0,2.997e4,7960.85,23.162,0.066,NaN,182.614,NaN,0.019,1.17e6,2677.233,0.18,0.498,0.639,0.417,0.009,0.072,NaN,NaN,NaN,NaN,NaN,NaN,NaN,NaN,7.512e-4,13.081,134.391,90,0,2.201,5.898,856.172,334.873,0.01,0.017
0.13,0.298,6.665,79.827,6.665,79.827,0,0,0,0,0,0,28.61,-80.6,9.788,18.472,0,0,0,2.996e4,7947.631,23.151,0.066,NaN,182.575,NaN,0.021,1.312e6,2684.924,0.225,0.489,0.635,0.408,0.009,0.072,NaN,NaN,NaN,NaN,NaN,NaN,NaN,NaN,8.533e-4,13.081,134.391,90,0,2.226,5.898,856.165,334.873,0.01,0.018
0.14,0.369,7.466,80.122,7.466,80.122,0,0,0,0,0,0,28.61,-80.6,9.788,16.782,0,0,0,2.995e4,7934.412,23.14,0.066,NaN,182.535,NaN,0.023,1.456e6,2692.614,0.273,0.481,0.626,0.399,0.009,0.072,NaN,NaN,NaN,NaN,NaN,NaN,NaN,NaN,9.559e-4,13.081,134.391,90,0,2.251,5.898,856.158,334.873,0.01,0.018
0.15,0.448,8.27,80.417,8.27,80.417,0,0,0,0,0,0,28.61,-80.6,9.788,15.391,0,0,0,2.993e4,7921.192,23.129,0.066,NaN,182.496,NaN,0.026,1.602e6,2700.305,0.324,0.474,0.613,0.392,0.009,0.072,NaN,NaN,NaN,NaN,NaN,NaN,NaN,NaN,0.001,13.081,134.391,90,0,2.277,5.897,856.15,334.873,0.01,0.019
0.16,0.535,9.077,80.712,9.077,80.712,0,0,0,0,0,0,28.61,-80.6,9.788,13.891,0,0,0,2.992e4,7907.973,23.118,0.066,NaN,182.457,NaN,0.028,1.746e6,2707.995,0.374,0.468,0.596,0.386,0.009,0.072,NaN,NaN,NaN,NaN,NaN,NaN,NaN,NaN,0.001,13.081,134.391,90,0,2.245,5.897,856.14,334.872,0.01,0.02
0.17,0.629,9.887,81.007,9.887,81.007,0,0,0,0,0,0,28.61,-80.6,9.788,12.616,0,0,0,2.991e4,7894.754,23.107,0.066,NaN,182.418,NaN,0.03,1.892e6,2715.685,0.426,0.462,0.578,0.38,0.009,0.072,NaN,NaN,NaN,NaN,NaN,NaN,NaN,NaN,0.001,13.081,134.391,90,0,2.213,5.896,856.13,334.872,0.01,0.021
0.18,0.732,10.699,81.303,10.699,81.303,0,0,0,0,0,0,28.61,-80.6,9.788,11.521,0,0,0,2.989e4,7881.535,23.096,0.066,NaN,182.379,NaN,0.033,2.039e6,2723.376,0.48,0.457,0.56,0.375,0.009,0.072,NaN,NaN,NaN,NaN,NaN,NaN,NaN,NaN,0.001,13.081,134.391,90,0,2.181,5.895,856.119,334.871,0.01,0.022
0.189,0.836,11.462,81.588,11.462,81.588,0,0,0,0,0,0,28.61,-80.6,9.788,10.63,0,0,0,2.988e4,7869.18,23.086,0.066,NaN,182.342,NaN,0.035,2.177e6,2730.815,0.532,0.452,0.545,0.37,0.009,0.072,NaN,NaN,NaN,NaN,NaN,NaN,NaN,NaN,0.001,13.081,134.391,90,0,2.151,5.895,856.108,334.871,0.009,0.023
0.198,0.939,12.176,81.854,12.176,81.854,0,0,0,0,0,0,28.61,-80.6,9.788,9.893,0,0,0,2.987e4,7857.647,23.076,0.066,NaN,182.308,NaN,0.037,2.308e6,2737.764,0.584,0.448,0.532,0.366,0.009,0.072,NaN,NaN,NaN,NaN,NaN,NaN,NaN,NaN,0.002,13.081,134.391,90,0,2.123,5.894,856.097,334.871,0.009,0.024
0.206,1.042,12.85,82.104,12.85,82.104,0,0,0,0,0,0,28.61,-80.6,9.788,9.346,0,0,0,2.986e4,7846.79,23.067,0.066,NaN,182.276,NaN,0.039,2.431e6,2744.276,0.635,0.445,0.521,0.363,0.009,0.073,NaN,NaN,NaN,NaN,NaN,NaN,NaN,NaN,0.002,13.081,134.391,90,0,2.115,5.893,856.086,334.87,0.008,0.025
0.219,1.206,13.865,82.416,13.865,82.416,-6.26e-6,0,6.26e-6,-180,0.001,0.085,28.61,-80.6,9.788,8.65,0,0.009,1.493e-6,2.984e4,7830.504,23.053,0.066,194.67,182.227,0.951,0.042,2.618e6,2752.172,0.719,0.441,0.509,0.359,0.009,0.073,1.754,1.669,2.817e-4,0,0,0,0,8.404e-7,0.002,13.081,134.391,90,0,2.11,5.892,856.069,334.87,0.012,0.025
0.237,1.477,15.396,82.883,15.396,82.883,-3.992e-5,0,3.992e-5,-180,0.003,0.089,28.61,-80.6,9.788,7.77,0,0.024,3.651e-6,2.982e4,7806.077,23.033,0.066,195.851,182.154,1.047,0.046,2.901e6,2764.014,0.865,0.441,0.499,0.359,0.009,0.073,1.514,1.584,4.31e-4,0,0,0,0,5.063e-6,0.002,13.081,134.391,90,-0.001,2.103,5.89,856.04,334.868,0.018,0.026
0.265,1.935,17.709,83.508,17.709,83.508,-1.481e-4,0,1.481e-4,-180,0.005,0.093,28.61,-80.6,9.788,6.598,0,0.052,3.672e-6,2.978e4,7768.785,23.001,0.066,197.596,182.043,1.189,0.053,3.328e6,2779.406,1.108,0.441,0.486,0.359,0.009,0.073,1.215,1.445,-4.786e-4,0,0,0,0,1.747e-5,0.002,13.081,134.391,89.999,-0.003,2.054,5.887,855.991,334.867,0.028,0.027
0.306,2.744,21.197,83.999,21.197,83.999,-4.444e-4,0,4.444e-4,-180,0.009,0.095,28.61,-80.6,9.788,5.297,0,0.101,1.875e-5,2.972e4,7712.114,22.954,0.066,199.806,181.873,1.371,0.064,3.974e6,2789.147,1.536,0.441,0.472,0.359,0.009,0.073,0.913,1.251,-1.742e-4,0,0,0,0,4.702e-5,0.003,13.081,134.391,89.996,-0.006,1.976,5.882,855.905,334.863,0.042,0.028
0.356,3.91,25.421,84.567,25.421,84.567,-0.001,-6.077e-9,0.001,-180,0.014,0.113,28.61,-80.6,9.788,4.846,0,0.18,3.657e-5,2.965e4,7643.963,22.896,0.065,200.658,181.668,1.452,0.076,4.762e6,2800.238,2.185,0.441,0.468,0.359,0.009,0.073,0.815,1.183,2.073e-4,0,0,0,0,1.032e-4,0.003,13.081,134.391,89.989,-0.006,2.175,5.875,855.781,334.859,0.05,0.029
0.406,5.287,29.674,85.168,29.674,85.168,-0.002,-1.849e-8,0.002,-179.999,0.02,0.111,28.61,-80.6,9.788,4.166,0,0.28,4.884e-5,2.959e4,7575.812,22.838,0.065,202.026,181.462,1.572,0.089,5.553e6,2812.348,2.933,0.442,0.462,0.359,0.01,0.073,0.675,1.06,-1.351e-4,0,0,0,0,1.847e-4,0.004,13.081,134.391,89.977,-0.007,2.193,5.866,855.635,334.853,0.05,0.029
0.456,6.878,33.955,85.711,33.955,85.711,-0.003,-4.672e-8,0.003,-179.999,0.025,0.092,28.61,-80.6,9.788,3.509,0,0.399,8.363e-5,2.952e4,7507.045,22.78,0.065,203.455,181.254,1.697,0.102,6.349e6,2822.684,3.791,0.442,0.456,0.359,0.01,0.073,0.547,0.928,8.676e-5,0,0,0,0,2.864e-4,0.004,13.081,134.391,89.96,-0.008,2.131,5.855,855.466,334.847,0.05,0.03
0.506,8.683,38.257,86.131,38.257,86.131,-0.004,-1.018e-7,0.004,-179.999,0.029,0.056,28.61,-80.6,9.788,2.919,0,0.532,1.29e-4,2.945e4,7438.131,22.721,0.065,204.848,181.044,1.82,0.114,7.148e6,2829.454,4.763,0.442,0.452,0.359,0.01,0.073,0.439,0.799,1.243e-4,0,0,0,0,4.009e-4,0.005,13.081,134.391,89.937,-0.008,2.021,5.844,855.274,334.84,0.05,0.031
0.556,10.704,42.579,86.546,42.579,86.546,-0.006,-2.007e-7,0.006,-179.998,0.031,0.014,28.61,-80.6,9.788,2.533,0,0.679,1.571e-4,2.938e4,7369.217,22.662,0.065,205.823,180.832,1.91,0.127,7.952e6,2836.124,5.867,0.442,0.45,0.359,0.01,0.074,0.372,0.71,-4.509e-4,0,0,0,0,5.269e-4,0.005,13.081,134.391,89.907,-0.009,1.983,5.83,855.059,334.832,0.05,0.031
0.606,12.941,46.922,86.939,46.922,86.939,-0.007,-3.692e-7,0.007,-179.997,0.03,0.052,28.61,-80.6,9.788,2.108,0,0.834,1.059e-4,2.931e4,7300.149,22.602,0.065,206.953,180.62,2.013,0.14,8.759e6,2842.219,7.085,0.442,0.448,0.359,0.01,0.074,0.302,0.606,-2.926e-4,0,0,0,0,6.561e-4,0.006,13.081,134.391,89.869,-0.009,1.865,5.816,854.821,334.823,0.05,0.032
0.656,15.396,51.277,87.195,51.277,87.196,-0.009,-6.381e-7,0.009,-179.996,0.025,0.121,28.61,-80.6,9.788,1.886,0,1,1.331e-4,2.924e4,7230.907,22.542,0.065,207.582,180.406,2.078,0.153,9.569e6,2844.379,8.442,0.443,0.447,0.358,0.01,0.074,0.266,0.552,1.349e-4,0,0,0,0,7.888e-4,0.007,13.081,134.391,89.823,-0.01,1.873,5.8,854.559,334.814,0.05,0.033
0.706,18.069,55.644,87.423,55.644,87.423,-0.01,-1.043e-6,0.01,-179.994,0.018,0.193,28.61,-80.6,9.788,1.802,0,1.188,3.135e-4,2.917e4,7161.664,22.481,0.065,207.845,180.191,2.114,0.166,1.038e7,2845.794,9.936,0.443,0.447,0.358,0.01,0.075,0.253,0.534,4.466e-5,0,0,0,0,9.458e-4,0.007,13.081,134.391,89.769,-0.009,1.993,5.783,854.275,334.803,0.05,0.033
0.756,20.961,60.022,87.648,60.022,87.648,-0.01,-1.618e-6,0.01,-179.991,0.005,0.317,28.61,-80.6,9.788,1.458,0,1.38,3.851e-4,2.91e4,7092.41,22.421,0.065,208.858,179.974,2.208,0.179,1.119e7,2847.207,11.526,0.443,0.446,0.358,0.01,0.075,0.2,0.441,2.523e-4,0,0,0,0,0.001,0.008,13.081,134.391,89.704,-0.009,1.843,5.764,853.968,334.792,0.05,0.034
0.806,24.071,64.41,87.861,64.41,87.862,-0.01,-2.407e-6,0.01,-179.987,0.014,0.43,28.61,-80.6,9.788,1.369,0,1.579,3.597e-4,2.903e4,7023.067,22.36,0.065,209.154,179.757,2.247,0.192,1.201e7,2848.393,13.269,0.444,0.446,0.358,0.01,0.075,0.187,0.418,1.509e-4,0,0,0,0,0.001,0.008,13.081,134.391,89.63,-0.009,1.941,5.744,853.637,334.779,0.05,0.034
0.856,27.402,68.809,88.065,68.809,88.066,-0.009,-3.459e-6,0.009,-179.978,0.038,0.549,28.61,-80.6,9.788,1.365,0,1.806,5.312e-4,2.896e4,6953.725,22.299,0.065,209.201,179.538,2.268,0.206,1.283e7,2849.426,15.151,0.444,0.446,0.358,0.01,0.076,0.186,0.421,-4.001e-4,0,0,0,0,0.001,0.009,13.081,134.391,89.546,-0.009,2.147,5.722,853.282,334.766,0.05,0.035
0.906,30.953,73.218,88.266,73.219,88.269,-0.006,-4.85e-6,0.006,-179.956,0.07,0.732,28.61,-80.6,9.788,1.121,0,2.04,8.091e-4,2.889e4,6884.382,22.237,0.065,209.977,179.319,2.344,0.219,1.364e7,2850.458,17.131,0.444,0.446,0.358,0.011,0.076,0.15,0.351,-1.602e-4,0,0,0,0,0.002,0.009,13.081,134.391,89.45,-0.01,2.066,5.699,852.905,334.752,0.05,0.036
0.956,34.724,77.638,88.463,77.638,88.468,-0.002,-6.688e-6,0.002,-179.795,0.111,0.938,28.61,-80.6,9.788,0.908,0,2.26,6.712e-4,2.883e4,6814.974,22.175,0.064,210.683,179.098,2.415,0.232,1.446e7,2851.5,19.246,0.445,0.446,0.357,0.011,0.077,0.12,0.288,-2.024e-4,0,0,0,0,0.002,0.01,13.081,134.391,89.342,-0.011,2.01,5.674,852.504,334.738,0.05,0.037
1.006,38.717,82.067,88.656,82.067,88.664,0.005,-9.08e-6,0.005,-0.105,0.164,1.174,28.61,-80.6,9.788,0.677,0,2.454,5.716e-4,2.876e4,6745.547,22.113,0.064,211.468,178.876,2.492,0.245,1.528e7,2852.56,21.491,0.445,0.446,0.357,0.011,0.077,0.088,0.218,3.95e-4,0,0,0,0,0.002,0.011,13.081,134.391,89.224,-0.01,1.917,5.648,852.079,334.722,0.05,0.038
1.056,42.931,86.505,88.845,86.505,88.856,0.015,-1.211e-5,0.015,-0.047,0.229,1.414,28.61,-80.6,9.788,0.537,0,2.624,9.503e-4,2.869e4,6676.119,22.051,0.064,211.98,178.652,2.548,0.259,1.61e7,2853.621,23.88,0.446,0.446,0.357,0.011,0.078,0.069,0.175,-2.766e-4,0,0,0,0,0.002,0.011,13.081,134.391,89.097,-0.01,1.945,5.621,851.631,334.705,0.05,0.039
1.106,47.367,90.953,89.033,90.953,89.048,0.028,-1.582e-5,0.028,-0.032,0.306,1.681,28.61,-80.6,9.788,0.367,9.329e-7,2.766,0.001,2.862e4,6606.635,21.988,0.064,212.604,178.428,2.613,0.272,1.692e7,2854.782,26.403,0.446,0.446,0.357,0.011,0.078,0.047,0.12,1.984e-4,0,0,0,0,0.002,0.012,13.081,134.391,88.962,-0.009,1.924,5.592,851.159,334.688,0.05,0.04
1.156,52.026,95.411,89.242,95.412,89.264,0.046,-2.025e-5,0.046,-0.025,0.398,1.977,28.61,-80.6,9.788,0.165,-9.6e-7,2.857,0.002,2.855e4,6537.08,21.925,0.064,213.361,178.202,2.688,0.285,1.774e7,2856.698,29.064,0.447,0.447,0.356,0.011,0.079,0.021,0.054,5.792e-5,0,0,0,0,0.002,0.012,13.081,134.391,88.822,-0.008,1.839,5.562,850.663,334.669,0.05,0.041
1.206,56.909,99.881,89.451,99.882,89.48,0.068,-2.543e-5,0.068,-0.021,0.504,2.281,28.61,-80.6,9.788,0.013,7.682e-7,-2.885,0.022,2.848e4,6467.525,21.861,0.064,213.959,177.976,2.751,0.299,1.857e7,2858.767,31.87,0.447,0.447,0.356,0.012,0.079,0.002,0.006,-1.842e-4,0,0,0,0,-0.002,0.013,13.081,134.391,88.678,-0.008,1.778,5.53,850.144,334.65,0.05,0.043
1.256,62.015,104.36,89.655,104.362,89.693,0.096,-3.137e-5,0.096,-0.019,0.626,2.603,28.61,-80.6,9.788,0.21,-1.228e-6,-2.83,0.002,2.841e4,6397.966,21.798,0.064,213.312,177.748,2.719,0.312,1.939e7,2860.825,34.822,0.448,0.448,0.356,0.012,0.08,0.027,0.074,-4.641e-4,0,0,0,0,-0.002,0.013,13.081,134.391,88.535,-0.007,1.66,5.497,849.601,334.63,0.05,0.044
1.306,67.345,108.847,89.79,108.849,89.837,0.131,-3.805e-5,0.131,-0.017,0.764,2.891,28.61,-80.6,9.788,0.309,-8.588e-7,-2.702,0.001,2.834e4,6328.37,21.733,0.064,213.027,177.519,2.715,0.325,2.022e7,2861.06,37.917,0.448,0.448,0.356,0.012,0.081,0.039,0.108,3.876e-5,0,0,0,0,-0.001,0.014,13.081,134.391,88.396,-0.006,1.696,5.462,849.034,334.609,0.05,0.045
1.356,72.899,113.337,89.875,113.341,89.931,0.173,-4.542e-5,0.173,-0.015,0.915,3.159,28.61,-80.6,9.788,0.375,-6.983e-7,-2.521,9.827e-4,2.827e4,6258.775,21.669,0.064,212.862,177.288,2.72,0.339,2.104e7,2859.988,41.152,0.449,0.449,0.355,0.012,0.081,0.048,0.131,4.044e-4,0,0,0,0,-0.001,0.015,13.081,134.391,88.265,-0.005,1.775,5.426,848.443,334.587,0.05,0.046
1.406,78.678,117.832,89.955,117.837,90.02,0.223,-5.345e-5,0.223,-0.014,1.08,3.428,28.61,-80.6,9.788,0.473,-8.749e-7,-2.27,7.926e-4,2.82e4,6189.179,21.604,0.064,212.594,177.057,2.717,0.352,2.187e7,2858.916,44.532,0.45,0.45,0.355,0.013,0.082,0.061,0.167,3.846e-4,0,0,0,0,-7.706e-4,0.015,13.081,134.391,88.145,-0.005,1.762,5.389,847.828,334.564,0.05,0.046
1.456,84.683,122.33,90.021,122.337,90.095,0.281,-6.214e-5,0.281,-0.013,1.257,3.645,28.61,-80.6,9.788,0.497,5.777e-7,-1.964,-3.949e-4,2.813e4,6119.677,21.54,0.064,212.581,176.825,2.733,0.366,2.269e7,2857.57,48.047,0.45,0.451,0.355,0.013,0.083,0.064,0.176,-4.116e-4,0,0,0,0,-5.355e-4,0.016,13.081,134.391,88.039,-0.005,1.869,5.35,847.189,334.541,0.05,0.047
1.506,90.911,126.83,90.057,126.839,90.139,0.349,-7.151e-5,0.349,-0.012,1.444,3.829,28.61,-80.6,9.788,0.512,-5.68e-7,-1.616,3.246e-4,2.806e4,6050.21,21.474,0.064,212.601,176.591,2.753,0.379,2.351e7,2855.499,51.701,0.451,0.451,0.354,0.013,0.084,0.066,0.183,-4.474e-4,0,0,0,0,-3.371e-4,0.016,13.081,134.391,87.95,-0.005,1.963,5.309,846.527,334.516,0.05,0.048
1.556,97.366,131.332,90.089,131.342,90.176,0.426,-8.164e-5,0.426,-0.011,1.639,3.972,28.61,-80.6,9.788,0.506,-5.56e-7,-1.238,1.826e-4,2.799e4,5980.743,21.409,0.063,212.692,176.357,2.778,0.393,2.433e7,2853.39,55.494,0.452,0.452,0.354,0.013,0.084,0.066,0.183,6.312e-5,0,0,0,0,-1.844e-4,0.017,13.081,134.391,87.878,-0.006,2.065,5.267,845.84,334.491,0.05,0.049
1.606,104.045,135.835,90.116,135.848,90.209,0.513,-9.26e-5,0.513,-0.01,1.84,4.089,28.61,-80.6,9.788,0.516,-4.628e-7,-0.825,2.764e-4,2.792e4,5911.344,21.343,0.063,212.736,176.121,2.799,0.406,2.516e7,2851.296,59.432,0.452,0.453,0.353,0.014,0.085,0.067,0.188,3.374e-4,0,0,0,0,-7.663e-5,0.017,13.081,134.391,87.827,-0.006,2.09,5.224,845.151,334.464,0.05,0.05
1.656,110.949,140.34,90.145,140.355,90.242,0.61,-1.045e-4,0.61,-0.01,2.048,4.184,28.61,-80.6,9.788,0.545,0,-0.356,-3.472e-4,2.785e4,5842.041,21.277,0.063,212.716,175.885,2.816,0.42,2.598e7,2849.34,63.515,0.453,0.454,0.353,0.014,0.086,0.071,0.2,-6.632e-5,0,0,0,0,-1.337e-5,0.018,13.081,134.391,87.797,-0.007,2.013,5.179,844.452,334.437,0.05,0.051
1.706,118.079,144.846,90.173,144.864,90.27,0.717,-1.176e-4,0.717,-0.009,2.257,4.187,28.61,-80.6,9.788,0.502,0,0.138,-0.001,2.778e4,5772.738,21.211,0.063,212.943,175.648,2.851,0.433,2.68e7,2847.416,67.732,0.454,0.454,0.353,0.014,0.087,0.065,0.187,4.994e-4,0,0,0,0,1.884e-6,0.019,13.081,134.391,87.792,-0.008,2.058,5.132,843.73,334.409,0.05,0.051
1.756,125.434,149.354,90.199,149.374,90.293,0.835,-1.319e-4,0.835,-0.009,2.465,4.121,28.61,-80.6,9.788,0.427,0,0.608,-3.936e-4,2.771e4,5703.447,21.145,0.063,213.284,175.409,2.895,0.447,2.761e7,2845.49,72.088,0.455,0.455,0.352,0.015,0.088,0.055,0.16,-2.785e-4,0,0,0,0,3.436e-5,0.019,13.081,134.391,87.81,-0.009,2.131,5.085,842.986,334.38,0.05,0.052
1.806,133.014,153.861,90.178,153.884,90.267,0.964,-1.478e-4,0.964,-0.009,2.668,4.018,28.61,-80.6,9.787,0.366,-3.077e-7,1.044,-8.884e-4,2.765e4,5634.39,21.078,0.063,213.582,175.17,2.936,0.46,2.843e7,2842.378,76.589,0.456,0.456,0.352,0.015,0.089,0.047,0.139,9.288e-5,0,0,0,0,9.56e-5,0.02,13.081,134.391,87.852,-0.01,2.118,5.035,842.218,334.35,0.05,0.053
1.856,140.82,158.364,90.117,158.39,90.2,1.102,-1.653e-4,1.102,-0.009,2.866,3.862,28.61,-80.6,9.787,0.293,0,1.433,-9.019e-4,2.758e4,5565.333,21.011,0.063,213.926,174.93,2.981,0.474,2.925e7,2838.281,81.231,0.457,0.457,0.351,0.016,0.09,0.038,0.112,3.579e-4,0,0,0,0,1.7e-4,0.02,13.081,134.391,87.914,-0.01,2.091,4.985,841.428,334.32,0.05,0.053
1.906,148.85,162.865,90.053,162.894,90.127,1.25,-1.844e-4,1.25,-0.008,3.053,3.654,28.61,-80.6,9.787,0.203,-1.072e-6,1.744,-0.003,2.751e4,5496.276,20.944,0.063,214.34,174.689,3.031,0.487,3.006e7,2834.184,86.017,0.458,0.458,0.351,0.016,0.091,0.026,0.079,-2.501e-4,0,0,0,0,2.38e-4,0.021,13.081,134.391,87.994,-0.011,2.075,4.932,840.616,334.288,0.05,0.054
1.956,157.106,167.36,89.95,167.392,90.015,1.407,-2.051e-4,1.407,-0.008,3.23,3.425,28.61,-80.6,9.787,0.125,0,1.962,-0.003,2.744e4,5427.554,20.877,0.063,214.714,174.447,3.078,0.501,3.087e7,2829.205,90.947,0.459,0.459,0.35,0.016,0.092,0.016,0.049,3.847e-4,0,0,0,0,2.853e-4,0.021,13.081,134.391,88.087,-0.012,1.994,4.879,839.78,334.255,0.05,0.055
2.006,165.586,171.846,89.744,171.879,89.8,1.573,-2.275e-4,1.573,-0.008,3.395,3.179,28.61,-80.6,9.787,0.056,-6.112e-7,2.095,-0.007,2.737e4,5358.982,20.809,0.063,215.067,174.205,3.124,0.514,3.167e7,2821.559,96.016,0.46,0.46,0.35,0.017,0.093,0.007,0.022,4.224e-4,0,0,0,0,3.086e-4,0.022,13.081,134.391,88.189,-0.012,1.872,4.824,838.922,334.222,0.05,0.056
2.056,174.29,176.32,89.525,176.356,89.572,1.747,-2.515e-4,1.747,-0.008,3.547,2.891,28.61,-80.6,9.787,0.044,-3.259e-6,-2.105,-0.007,2.73e4,5290.411,20.741,0.063,215.219,173.962,3.154,0.528,3.248e7,2813.732,101.227,0.461,0.461,0.349,0.017,0.094,0.006,0.017,-1.381e-4,0,0,0,0,-2.958e-4,0.023,13.081,134.391,88.295,-0.012,1.839,4.767,838.041,334.188,0.05,0.056
2.106,183.218,180.784,89.29,180.821,89.327,1.927,-2.769e-4,1.927,-0.008,3.683,2.59,28.61,-80.6,9.787,0.149,-7.197e-7,-1.939,-0.002,2.723e4,5222.115,20.674,0.063,214.953,173.719,3.152,0.541,3.327e7,2805.669,106.584,0.462,0.462,0.349,0.018,0.095,0.019,0.06,8.044e-5,0,0,0,0,-2.389e-4,0.023,13.081,134.391,88.396,-0.012,1.851,4.709,837.137,334.153,0.05,0.058
2.156,192.368,185.229,88.941,185.268,88.971,2.115,-3.036e-4,2.115,-0.008,3.806,2.328,28.61,-80.6,9.787,0.225,-4.726e-7,-1.612,-0.002,2.716e4,5154.336,20.606,0.062,214.803,173.476,3.159,0.555,3.407e7,2794.776,112.073,0.463,0.463,0.348,0.018,0.097,0.029,0.092,4.821e-4,0,0,0,0,-1.571e-4,0.024,13.081,134.391,88.486,-0.011,1.821,4.65,836.211,334.117,0.05,0.059
2.206,201.74,189.656,88.553,189.696,88.578,2.308,-3.312e-4,2.308,-0.008,3.916,2.08,28.61,-80.6,9.787,0.311,-1.169e-6,-1.114,-0.001,2.71e4,5086.556,20.538,0.062,214.627,173.232,3.165,0.568,3.486e7,2783.055,117.7,0.464,0.464,0.348,0.019,0.098,0.04,0.128,-1.318e-4,0,0,0,0,-7.166e-5,0.024,13.081,134.391,88.554,-0.008,1.903,4.589,835.262,334.08,0.05,0.06
2.256,211.333,194.063,88.157,194.104,88.178,2.506,-3.591e-4,2.506,-0.008,4.014,1.897,28.61,-80.6,9.787,0.378,0,-0.415,-0.002,2.703e4,5018.809,20.47,0.062,214.524,172.986,3.175,0.581,3.564e7,2771.332,123.457,0.465,0.466,0.347,0.019,0.099,0.049,0.157,3.927e-4,0,0,0,0,-9.514e-6,0.025,13.081,134.391,88.593,-0.005,2.035,4.526,834.291,334.042,0.05,0.061
2.306,221.146,198.445,87.655,198.488,87.676,2.709,-3.867e-4,2.709,-0.008,4.108,1.907,28.61,-80.6,9.787,0.34,0,0.322,-0.002,2.696e4,4952.175,20.402,0.062,214.79,172.744,3.214,0.594,3.642e7,2757.115,129.297,0.467,0.467,0.347,0.02,0.1,0.045,0.143,2.165e-4,0,0,0,0,5.452e-6,0.025,13.081,134.391,88.595,-0.001,1.938,4.463,833.298,334.003,0.05,0.062
2.356,231.177,202.798,87.062,202.841,87.084,2.917,-4.132e-4,2.917,-0.008,4.204,1.95,28.61,-80.6,9.787,0.326,7.458e-7,1.079,-0.003,2.69e4,4885.542,20.335,0.062,214.98,172.501,3.247,0.608,3.718e7,2740.66,135.264,0.468,0.468,0.346,0.021,0.101,0.043,0.139,2.238e-4,0,0,0,0,5.88e-5,0.026,13.081,134.391,88.56,0.003,2.051,4.397,832.283,333.964,0.05,0.062
2.406,241.425,207.121,86.458,207.165,86.486,3.13,-4.378e-4,3.13,-0.008,4.307,2.203,28.61,-80.6,9.787,0.21,1.007e-6,1.694,-0.003,2.683e4,4818.909,20.267,0.062,215.536,172.256,3.309,0.621,3.795e7,2724.206,141.308,0.469,0.469,0.345,0.021,0.103,0.027,0.091,4.127e-4,0,0,0,0,1.389e-4,0.027,13.081,134.391,88.489,0.007,1.912,4.331,831.246,333.923,0.05,0.063
2.456,251.888,211.412,85.823,211.458,85.86,3.348,-4.597e-4,3.348,-0.008,4.424,2.504,28.61,-80.6,9.787,0.099,1.251e-6,2.083,-0.01,2.676e4,4753.23,20.199,0.062,216.089,172.013,3.369,0.633,3.87e7,2707.29,147.475,0.471,0.471,0.345,0.022,0.104,0.013,0.043,-1.751e-4,0,0,0,0,2.015e-4,0.027,13.081,134.391,88.394,0.01,1.866,4.263,830.187,333.882,0.05,0.064
2.506,262.565,215.668,85.121,215.716,85.17,3.572,-4.782e-4,3.572,-0.008,4.558,2.876,28.61,-80.6,9.787,0.042,-1.744e-6,-2.139,-0.019,2.67e4,4688.027,20.132,0.062,216.448,171.771,3.415,0.646,3.944e7,2688.878,153.75,0.472,0.472,0.344,0.022,0.105,0.005,0.019,1.271e-4,0,0,0,0,-2.043e-4,0.028,13.081,134.391,88.286,0.011,1.73,4.193,829.106,333.84,0.05,0.064
2.556,273.454,219.889,84.408,219.94,84.468,3.804,-4.929e-4,3.804,-0.007,4.709,3.18,28.61,-80.6,9.787,0.135,-2.654e-6,-1.908,-0.006,2.663e4,4622.824,20.064,0.062,216.267,171.528,3.42,0.659,4.018e7,2670.353,160.143,0.473,0.473,0.344,0.023,0.106,0.018,0.06,2.069e-4,0,0,0,0,-1.563e-4,0.028,13.081,134.391,88.184,0.008,1.739,4.123,828.004,333.797,0.05,0.065
2.606,284.553,224.074,83.685,224.127,83.758,4.043,-5.046e-4,4.043,-0.007,4.876,3.485,28.61,-80.6,9.787,0.241,1.224e-6,-1.33,-0.006,2.657e4,4558.083,19.997,0.062,216.046,171.286,3.422,0.672,4.091e7,2651.829,166.641,0.475,0.475,0.343,0.024,0.108,0.032,0.108,3.973e-4,0,0,0,0,-7.309e-5,0.029,13.081,134.391,88.102,0.002,1.6,4.05,826.88,333.753,0.05,0.065
2.656,295.861,228.223,82.961,228.279,83.037,4.292,-5.144e-4,4.292,-0.007,5.052,3.547,28.61,-80.6,9.787,0.235,9.829e-7,-0.618,-0.006,2.65e4,4494.384,19.93,0.062,216.232,171.046,3.454,0.684,4.163e7,2633.338,173.228,0.476,0.476,0.342,0.025,0.109,0.031,0.106,1.924e-4,0,0,0,0,-1.523e-5,0.029,13.081,134.391,88.053,-0.004,1.767,3.977,825.736,333.709,0.05,0.066
2.706,307.375,232.335,82.234,232.394,82.309,4.549,-5.244e-4,4.549,-0.007,5.229,3.529,28.61,-80.6,9.787,0.22,-8.965e-7,0.121,-7.989e-4,2.644e4,4430.685,19.864,0.062,216.452,170.805,3.49,0.697,4.234e7,2614.859,179.902,0.478,0.478,0.342,0.026,0.11,0.029,0.101,-4.316e-4,0,0,0,0,5.617e-7,0.03,13.081,134.391,88.041,-0.01,1.821,3.902,824.57,333.664,0.05,0.067
2.756,319.093,236.411,81.503,236.473,81.574,4.814,-5.36e-4,4.814,-0.006,5.402,3.407,28.61,-80.6,9.787,0.181,-7.672e-7,0.789,-0.005,2.638e4,4366.985,19.796,0.062,216.762,170.563,3.532,0.709,4.304e7,2596.379,186.664,0.479,0.479,0.341,0.026,0.112,0.024,0.084,2.722e-4,0,0,0,0,2.311e-5,0.03,13.081,134.391,88.065,-0.014,1.837,3.826,823.384,333.617,0.05,0.067
2.806,331.015,240.449,80.739,240.514,80.805,5.089,-5.504e-4,5.089,-0.006,5.569,3.254,28.61,-80.6,9.787,0.156,3.27e-7,1.411,-0.006,2.632e4,4304.818,19.73,0.061,217.026,170.326,3.57,0.721,4.373e7,2577.316,193.51,0.481,0.481,0.341,0.027,0.113,0.021,0.073,-3.086e-4,0,0,0,0,7.148e-5,0.031,13.081,134.391,88.121,-0.018,1.664,3.748,822.178,333.57,0.05,0.068
2.856,343.137,244.448,79.951,244.515,80.004,5.371,-5.686e-4,5.371,-0.006,5.722,2.889,28.61,-80.6,9.787,0.049,0,1.78,-0.017,2.625e4,4242.669,19.664,0.061,217.596,170.087,3.632,0.733,4.442e7,2557.638,200.448,0.483,0.483,0.34,0.028,0.115,0.006,0.023,1.694e-4,0,0,0,0,1.101e-4,0.031,13.081,134.391,88.202,-0.019,1.748,3.67,820.951,333.523,0.05,0.069
2.906,355.459,248.407,79.157,248.476,79.195,5.661,-5.906e-4,5.661,-0.006,5.855,2.476,28.61,-80.6,9.787,0.068,-3.992e-6,-1.739,-0.009,2.619e4,4180.521,19.598,0.061,217.703,169.848,3.658,0.745,4.509e7,2537.961,207.491,0.484,0.484,0.339,0.029,0.116,0.009,0.033,-1.223e-4,0,0,0,0,-1.017e-4,0.032,13.081,134.391,88.292,-0.016,1.856,3.59,819.704,333.474,0.05,0.069
2.956,367.977,252.327,78.366,252.397,78.394,5.956,-6.152e-4,5.956,-0.006,5.968,2.081,28.61,-80.6,9.787,0.179,-2.835e-6,-1.229,-0.004,2.613e4,4119.325,19.532,0.061,217.477,169.61,3.659,0.757,4.576e7,2518.725,214.642,0.486,0.486,0.339,0.03,0.117,0.024,0.087,-3.898e-4,0,0,0,0,-4.925e-5,0.032,13.081,134.391,88.368,-0.009,2.019,3.508,818.436,333.425,0.05,0.07
3.006,380.691,256.21,77.625,256.282,77.646,6.257,-6.404e-4,6.257,-0.006,6.064,1.835,28.61,-80.6,9.787,0.242,-2.001e-6,-0.312,-0.004,2.607e4,4058.694,19.467,0.061,217.429,169.375,3.674,0.769,4.642e7,2501.136,221.886,0.488,0.488,0.338,0.031,0.119,0.032,0.119,1.113e-4,0,0,0,0,-3.078e-6,0.033,13.081,134.391,88.408,0.002,2.151,3.426,817.15,333.375,0.05,0.07
3.056,393.597,260.056,76.876,260.129,76.899,6.562,-6.634e-4,6.562,-0.006,6.155,1.861,28.61,-80.6,9.787,0.221,-3.694e-7,0.71,-0.005,2.601e4,3998.063,19.401,0.061,217.689,169.137,3.712,0.781,4.706e7,2483.702,229.194,0.49,0.49,0.337,0.032,0.12,0.03,0.109,-1.98e-4,0,0,0,0,1.546e-5,0.033,13.081,134.391,88.397,0.01,2.131,3.342,815.843,333.324,0.05,0.071
3.106,406.695,263.864,76.122,263.938,76.15,6.873,-6.819e-4,6.873,-0.006,6.252,2.065,28.61,-80.6,9.787,0.16,0,1.596,-0.005,2.595e4,3937.76,19.335,0.061,218.1,168.901,3.761,0.792,4.77e7,2466.437,236.593,0.492,0.492,0.337,0.034,0.122,0.021,0.08,1.752e-5,0,0,0,0,7.595e-5,0.034,13.081,134.391,88.337,0.015,2.141,3.256,814.518,333.272,0.05,0.071
3.156,419.983,267.641,75.478,267.716,75.516,7.188,-6.946e-4,7.188,-0.006,6.362,2.397,28.61,-80.6,9.787,0.073,-4.335e-6,2.169,-0.02,2.589e4,3878.356,19.27,0.061,218.607,168.666,3.818,0.804,4.833e7,2452.442,244.111,0.494,0.494,0.336,0.035,0.123,0.01,0.037,1.182e-4,0,0,0,0,1.363e-4,0.034,13.081,134.391,88.241,0.016,2.196,3.17,813.173,333.22,0.05,0.072
3.206,433.459,271.387,74.87,271.465,74.925,7.509,-7.012e-4,7.509,-0.005,6.494,2.872,28.61,-80.6,9.787,0.055,-5.177e-6,-2.201,-0.017,2.583e4,3818.952,19.205,0.061,218.865,168.431,3.856,0.815,4.895e7,2439.707,251.76,0.496,0.496,0.335,0.036,0.124,0.007,0.029,8.918e-5,0,0,0,0,-1.366e-4,0.035,13.081,134.391,88.128,0.014,2.099,3.083,811.809,333.167,0.05,0.073
3.256,447.121,275.103,74.254,275.183,74.326,7.838,-7.019e-4,7.838,-0.005,6.649,3.285,28.61,-80.6,9.787,0.16,0,-1.626,-0.005,2.577e4,3759.548,19.139,0.061,218.668,168.194,3.859,0.826,4.957e7,2426.972,259.563,0.499,0.499,0.335,0.038,0.126,0.021,0.083,4.901e-4,0,0,0,0,-7.251e-5,0.035,13.081,134.391,88.03,0.012,2.029,2.994,810.426,333.113,0.05,0.073
3.306,460.965,278.662,71.104,278.745,71.187,8.174,-6.977e-4,8.174,-0.005,6.816,3.439,28.61,-80.6,9.787,0.22,-2.847e-6,-0.58,-0.002,2.572e4,3706.685,19.081,0.061,218.634,167.983,3.872,0.837,5.015e7,2349.384,267.223,0.501,0.501,0.334,0.04,0.127,0.03,0.115,-1.305e-4,0,0,0,0,-8.982e-6,0.036,13.081,134.391,87.974,0.006,1.956,2.904,809.025,333.059,0.05,0.074
3.356,474.979,281.909,64.879,281.995,64.959,8.519,-6.901e-4,8.519,-0.005,6.979,3.223,28.61,-80.6,9.786,0.217,-1.68e-6,0.68,-0.003,2.566e4,3654.184,19.022,0.061,218.819,167.772,3.902,0.847,5.067e7,2192.397,274.346,0.503,0.503,0.334,0.041,0.129,0.029,0.115,6.173e-6,0,0,0,0,1.209e-5,0.036,13.081,134.391,87.978,0.002,1.896,2.813,807.606,333.003,0.05,0.075
3.406,489.148,284.844,58.655,284.933,58.716,8.872,-6.808e-4,8.872,-0.004,7.121,2.673,28.61,-80.6,9.786,0.126,1.87e-6,1.678,-0.006,2.561e4,3601.682,18.964,0.061,219.318,167.56,3.957,0.856,5.114e7,2035.211,280.897,0.506,0.506,0.333,0.043,0.13,0.017,0.067,-4.08e-4,0,0,0,0,7.204e-5,0.036,13.081,134.391,88.04,-0.003,2.004,2.721,806.172,332.948,0.05,0.076
3.456,503.454,287.408,51.208,287.499,51.247,9.231,-6.714e-4,9.231,-0.004,7.231,1.983,28.61,-80.6,9.786,0.012,-2.144e-6,2.078,-0.029,2.557e4,3561.097,18.918,0.061,219.886,167.396,4.013,0.864,5.154e7,1847.331,286.711,0.508,0.508,0.333,0.044,0.131,0.002,0.007,2.18e-4,0,0,0,0,1.085e-4,0.037,13.081,134.391,88.139,-0.004,2.061,2.628,804.724,332.891,0.05,0.078
3.506,517.874,289.358,38.966,289.451,38.986,9.594,-6.624e-4,9.594,-0.004,7.301,1.236,28.61,-80.6,9.786,0.075,-1.17e-6,-1.894,-0.003,2.554e4,3528.208,18.881,0.061,219.758,167.262,4.013,0.87,5.183e7,1536.654,291.133,0.509,0.509,0.332,0.045,0.132,0.01,0.041,-2.219e-4,0,0,0,0,-8.895e-5,0.037,13.081,134.391,88.241,-0.006,1.978,2.534,803.265,332.834,0.05,0.079
3.556,532.374,290.672,26.246,290.765,26.253,9.96,-6.539e-4,9.96,-0.004,7.336,0.586,28.61,-80.6,9.786,0.143,-1.242e-6,-1.194,-0.004,2.551e4,3495.32,18.844,0.06,219.582,167.128,4.01,0.874,5.2e7,1213.174,294.032,0.51,0.51,0.332,0.046,0.132,0.019,0.077,-3.465e-4,0,0,0,0,-3.505e-5,0.037,13.081,134.391,88.319,-0.006,1.93,2.44,801.797,332.777,0.05,0.081
3.606,546.925,291.36,13.745,291.453,13.745,10.327,-6.458e-4,10.327,-0.004,7.344,0.145,28.61,-80.6,9.786,0.161,-1.597e-6,-0.219,-0.003,2.548e4,3467.289,18.813,0.06,219.556,167.014,4.017,0.876,5.206e7,894.785,295.359,0.511,0.511,0.332,0.047,0.133,0.022,0.087,2.906e-4,0,0,0,0,-1.17e-6,0.037,13.081,134.391,88.354,-0.002,1.852,2.345,800.324,332.72,0.05,0.082
3.656,561.5,291.646,5.719,291.739,5.719,10.694,-6.373e-4,10.694,-0.003,7.341,0.001,28.61,-80.6,9.786,0.134,6.879e-7,0.725,-0.002,2.546e4,3454.021,18.798,0.06,219.672,166.96,4.03,0.877,5.205e7,690.39,295.658,0.511,0.511,0.332,0.047,0.133,0.018,0.073,3.663e-5,0,0,0,0,1.282e-5,0.037,13.081,134.391,88.34,0.004,1.798,2.25,798.849,332.663,0.05,0.083
3.706,576.082,291.624,-0.44,291.716,0.441,11.061,-6.268e-4,11.061,-0.003,7.337,0.03,28.61,-80.6,9.786,0.07,-3.978e-7,1.379,-0.008,2.545e4,3440.753,18.783,0.06,219.916,166.906,4.052,0.877,5.198e7,533.013,295.166,0.511,0.511,0.332,0.047,0.133,0.009,0.038,3.451e-4,0,0,0,0,4.645e-5,0.037,13.081,134.391,88.284,0.008,1.748,2.155,797.373,332.605,0.05,0.084
3.756,590.655,291.294,-6.576,291.386,6.577,11.428,-6.134e-4,11.428,-0.003,7.336,0.083,28.61,-80.6,9.786,0.007,2.318e-6,-1.559,-0.094,2.544e4,3427.485,18.768,0.06,220.138,166.851,4.074,0.876,5.185e7,375.636,293.906,0.511,0.511,0.332,0.047,0.133,8.794e-4,0.004,-2.848e-4,0,0,0,0,-5.943e-5,0.037,13.081,134.391,88.207,0.012,1.738,2.061,795.898,332.548,0.05,0.084
3.806,605.206,290.74,-11.042,290.833,11.042,11.795,-5.962e-4,11.795,-0.003,7.336,0.091,28.61,-80.6,9.786,0.056,-1.037e-6,-1.403,-0.011,2.543e4,3422.059,18.762,0.06,219.923,166.829,4.059,0.875,5.169e7,260.321,292.115,0.511,0.511,0.332,0.046,0.132,0.008,0.03,-2.173e-5,0,0,0,0,-4.835e-5,0.037,13.081,134.391,88.132,0.012,1.856,1.966,794.451,332.49,0.05,0.085
3.856,619.726,290.081,-13.159,290.174,13.161,12.161,-5.754e-4,12.161,-0.003,7.344,0.253,28.61,-80.6,9.786,0.133,-3.79e-6,-0.753,0.001,2.543e4,3417.432,18.756,0.06,219.6,166.81,4.036,0.873,5.152e7,204.637,290.079,0.51,0.51,0.332,0.046,0.132,0.018,0.073,-2.055e-4,0,0,0,0,-1.4e-5,0.037,13.081,134.391,88.076,0.009,1.709,1.872,793.053,332.433,0.05,0.086
3.906,634.211,289.316,-15.241,289.41,15.241,12.529,-5.517e-4,12.529,-0.003,7.353,0.145,28.61,-80.6,9.786,0.122,-2.085e-6,0.039,0.001,2.542e4,3412.805,18.751,0.06,219.601,166.791,4.037,0.871,5.132e7,149.39,287.805,0.51,0.51,0.332,0.046,0.132,0.017,0.067,4.729e-4,0,0,0,0,3.75e-8,0.037,13.081,134.391,88.059,0.009,1.83,1.778,791.659,332.376,0.05,0.086
3.956,648.656,288.459,-17.1,288.553,17.1,12.897,-5.255e-4,12.897,-0.002,7.355,0.014,28.61,-80.6,9.786,0.09,-3.297e-6,0.699,-0.003,2.542e4,3409.959,18.748,0.06,219.677,166.779,4.044,0.868,5.111e7,99.523,285.311,0.509,0.509,0.332,0.045,0.132,0.012,0.049,4.787e-4,0,0,0,0,1.22e-5,0.037,13.081,134.391,88.08,0.007,1.864,1.684,790.269,332.319,0.05,0.087
4.006,663.056,287.557,-17.977,287.651,17.978,13.264,-4.971e-4,13.264,-0.002,7.35,0.15,28.61,-80.6,9.786,0.053,-2.588e-6,1.148,-0.005,2.542e4,3408.47,18.746,0.06,219.771,166.773,4.051,0.866,5.089e7,74.559,282.727,0.508,0.508,0.332,0.045,0.131,0.007,0.029,2.402e-4,0,0,0,0,3.309e-5,0.037,13.081,134.391,88.128,0.002,1.789,1.59,788.883,332.263,0.05,0.087
4.056,677.41,286.618,-18.727,286.712,18.73,13.632,-4.678e-4,13.632,-0.002,7.338,0.319,28.61,-80.6,9.786,1.987e-4,-1.254e-6,0,0,2.542e4,3406.981,18.744,0.06,219.919,166.767,4.063,0.863,5.067e7,52.719,280.08,0.507,0.507,0.333,0.044,0.131,2.657e-5,1.814e-4,1.193e-4,0,0,0,0,0,0.037,13.081,134.391,88.191,-0.004,1.718,1.497,787.501,332.206,0.05,0.088
4.106,691.717,285.642,-19.462,285.736,19.47,13.998,-4.388e-4,13.998,-0.002,7.315,0.556,28.61,-80.6,9.786,0.077,-3.495e-6,-1.058,-9.537e-5,2.542e4,3405.739,18.743,0.06,219.578,166.762,4.038,0.86,5.044e7,31.192,277.39,0.507,0.507,0.333,0.044,0.13,0.01,0.042,-3.411e-4,0,0,0,0,-2.849e-5,0.037,13.081,134.391,88.253,-0.008,1.794,1.404,786.124,332.15,0.05,0.089
4.156,705.974,284.649,-19.82,284.742,19.83,14.363,-4.11e-4,14.363,-0.002,7.284,0.638,28.61,-80.6,9.786,0.105,-2.207e-6,-0.525,0.002,2.542e4,3405.441,18.743,0.06,219.423,166.761,4.026,0.858,5.021e7,19.334,274.673,0.506,0.506,0.333,0.043,0.13,0.014,0.057,4.7e-4,0,0,0,0,-7.068e-6,0.036,13.081,134.391,88.293,-0.012,1.727,1.311,784.752,332.093,0.05,0.089
4.206,720.182,283.646,-19.999,283.739,20.01,14.726,-3.851e-4,14.726,-0.001,7.25,0.683,28.61,-80.6,9.786,0.12,-3.142e-7,0.153,-0.004,2.542e4,3405.143,18.742,0.06,219.314,166.76,4.018,0.855,4.997e7,12.045,271.969,0.505,0.505,0.333,0.042,0.13,0.016,0.066,3.72e-4,0,0,0,0,6.026e-7,0.036,13.081,134.391,88.302,-0.011,1.76,1.219,783.384,332.038,0.05,0.09
4.256,734.339,282.634,-20.181,282.727,20.191,15.088,-3.606e-4,15.088,-0.001,7.217,0.637,28.61,-80.6,9.786,0.102,-3.065e-6,0.81,-0.003,2.542e4,3404.845,18.742,0.06,219.33,166.759,4.019,0.852,4.974e7,4.756,269.265,0.505,0.505,0.333,0.042,0.129,0.014,0.055,-3.505e-4,0,0,0,0,1.706e-5,0.036,13.081,134.391,88.277,-0.004,1.793,1.127,782.022,331.982,0.05,0.09
4.264,736.492,282.479,-20.33,282.571,20.34,15.143,-3.57e-4,15.143,-0.001,7.212,0.63,28.61,-80.6,9.786,0.098,-1.03e-6,0.918,-0.002,2.542e4,3404.8,18.742,0.06,219.339,166.758,4.02,0.851,4.97e7,0.555,268.854,0.504,0.504,0.333,0.042,0.129,0.013,0.053,-4.606e-4,0,0,0,0,2.192e-5,0.036,13.081,134.391,88.27,-0.003,1.803,1.113,781.814,331.973,0.008,0.091
4.275,739.72,282.247,-20.328,282.339,20.337,15.225,-3.515e-4,15.225,-0.001,7.205,0.608,28.61,-80.6,9.786,0.09,-1.18e-6,1.042,-0.004,2.542e4,3404.8,18.742,0.06,219.357,166.758,4.021,0.851,4.965e7,0,268.238,0.504,0.504,0.333,0.042,0.129,0.012,0.048,3.103e-4,0,0,0,0,2.826e-5,0.036,13.081,134.391,88.259,-0.002,1.817,1.092,781.504,331.961,0.011,0.092
4.293,744.556,281.899,-20.293,281.99,20.301,15.349,-3.432e-4,15.349,-0.001,7.195,0.569,28.61,-80.6,9.786,0.075,-1.369e-6,1.202,-0.005,2.542e4,3404.8,18.742,0.06,219.394,166.758,4.024,0.85,4.957e7,0,267.318,0.504,0.504,0.333,0.042,0.129,0.01,0.04,-4.511e-4,0,0,0,0,3.773e-5,0.036,13.081,134.391,88.24,0.001,1.839,1.06,781.038,331.941,0.017,0.093
4.318,751.8,281.377,-20.241,281.469,20.247,15.534,-3.307e-4,15.534,-0.001,7.181,0.494,28.61,-80.6,9.786,0.047,-3.349e-7,1.382,-0.005,2.542e4,3404.8,18.742,0.06,219.472,166.758,4.03,0.848,4.945e7,0,265.945,0.504,0.504,0.333,0.041,0.129,0.006,0.025,-4.844e-4,0,0,0,0,5.01e-5,0.036,13.081,134.391,88.206,0.005,1.862,1.013,780.341,331.913,0.026,0.094
4.357,762.64,280.598,-20.165,280.689,20.168,15.81,-3.11e-4,15.81,-0.001,7.164,0.359,28.61,-80.6,9.786,0.004,3.342e-7,-1.477,-0.078,2.542e4,3404.8,18.742,0.06,219.594,166.758,4.039,0.846,4.927e7,0,263.907,0.503,0.503,0.334,0.041,0.129,5.635e-4,0.002,-3.168e-4,0,0,0,0,-5.752e-5,0.036,13.081,134.391,88.15,0.009,1.874,0.943,779.297,331.87,0.039,0.098
4.407,776.645,279.592,-20.069,279.684,20.07,16.168,-2.833e-4,16.168,-0.001,7.152,0.154,28.61,-80.6,9.786,0.082,0,-1.205,-0.006,2.542e4,3404.8,18.742,0.06,219.249,166.758,4.013,0.843,4.903e7,0,261.299,0.502,0.502,0.334,0.041,0.128,0.011,0.044,-1.778e-4,0,0,0,0,-3.853e-5,0.036,13.081,134.391,88.081,0.012,1.803,0.852,777.949,331.815,0.05,0.099
4.457,790.6,278.591,-19.972,278.683,19.972,16.526,-2.525e-4,16.526,-8.755e-4,7.147,0.051,28.61,-80.6,9.785,0.123,1.552e-6,-0.648,-0.006,2.542e4,3404.8,18.742,0.06,219.048,166.758,3.997,0.84,4.88e7,0,258.736,0.502,0.502,0.334,0.04,0.128,0.016,0.066,2.446e-4,0,0,0,0,-1.124e-5,0.036,13.081,134.391,88.034,0.012,1.813,0.761,776.606,331.76,0.05,0.104
4.507,804.504,277.595,-19.876,277.687,19.876,16.883,-2.187e-4,16.883,-7.421e-4,7.148,0.055,28.61,-80.6,9.785,0.162,-3.729e-7,0.18,-0.005,2.542e4,3404.8,18.742,0.06,218.852,166.758,3.982,0.837,4.857e7,0,256.197,0.501,0.501,0.334,0.04,0.127,0.022,0.087,7.149e-5,0,0,0,0,8.684e-7,0.036,13.081,134.391,88.022,0.009,1.645,0.671,775.268,331.705,0.05,0.106
4.557,818.359,276.604,-19.774,276.696,19.774,17.24,-1.827e-4,17.24,-6.072e-4,7.149,0.037,28.61,-80.6,9.785,0.126,2.002e-6,0.966,-0.001,2.542e4,3404.8,18.742,0.06,218.934,166.758,3.989,0.834,4.834e7,0,253.688,0.5,0.5,0.334,0.039,0.127,0.017,0.068,-3.639e-4,0,0,0,0,2.533e-5,0.035,13.081,134.391,88.052,0.003,1.647,0.581,773.934,331.651,0.05,0.108
4.607,832.165,275.617,-19.671,275.71,19.672,17.598,-1.461e-4,17.598,-4.756e-4,7.144,0.182,28.61,-80.6,9.785,0.067,4.937e-7,1.498,-0.005,2.542e4,3404.8,18.742,0.06,219.105,166.758,4.002,0.832,4.812e7,0,251.209,0.5,0.5,0.334,0.039,0.127,0.009,0.036,3.864e-4,0,0,0,0,6.133e-5,0.035,13.081,134.391,88.116,-0.003,1.6,0.491,772.605,331.596,0.05,0.11
4.657,845.921,274.636,-19.569,274.729,19.572,17.955,-1.097e-4,17.955,-3.501e-4,7.131,0.352,28.61,-80.6,9.785,0.003,-1.464e-6,-1.69,-0.132,2.542e4,3404.8,18.742,0.06,219.296,166.758,4.016,0.829,4.789e7,0,248.767,0.499,0.499,0.335,0.038,0.126,4.556e-4,0.002,-9.978e-5,0,0,0,0,-7.861e-5,0.035,13.081,134.391,88.198,-0.004,1.53,0.402,771.281,331.542,0.05,0.112
4.707,859.628,273.661,-19.468,273.753,19.477,18.311,-7.388e-5,18.311,-2.312e-4,7.106,0.597,28.61,-80.6,9.785,0.104,7.418e-7,-1.376,-0.006,2.542e4,3404.8,18.742,0.06,218.871,166.758,3.984,0.826,4.767e7,0,246.381,0.499,0.499,0.335,0.038,0.126,0.014,0.055,-1.238e-4,0,0,0,0,-5.249e-5,0.035,13.081,134.391,88.278,-0.003,1.632,0.312,769.962,331.488,0.05,0.114
4.757,873.287,272.69,-19.372,272.781,19.384,18.665,-3.829e-5,18.665,-1.175e-4,7.074,0.693,28.61,-80.6,9.785,0.146,0,-0.731,-0.005,2.542e4,3404.8,18.742,0.06,218.666,166.758,3.968,0.823,4.745e7,0,244.015,0.498,0.498,0.335,0.038,0.126,0.02,0.078,2.143e-4,0,0,0,0,-1.49e-5,0.035,13.081,134.391,88.331,3.58e-4,1.575,0.224,768.647,331.434,0.05,0.116
4.807,886.898,271.723,-19.279,271.814,19.293,19.018,-2.48e-6,19.018,-7.473e-6,7.037,0.757,28.61,-80.6,9.785,0.175,-3.644e-7,0.129,-0.005,2.542e4,3404.8,18.742,0.06,218.515,166.758,3.957,0.82,4.722e7,0,241.686,0.497,0.498,0.335,0.037,0.125,0.023,0.093,-4.519e-4,0,0,0,0,4.694e-7,0.035,13.081,134.391,88.346,0.003,1.644,0.135,767.337,331.381,0.05,0.123
4.857,900.46,270.762,-19.189,270.852,19.202,19.369,3.398e-5,19.369,1.005e-4,7,0.692,28.61,-80.6,9.785,0.15,2.178e-6,0.955,0.003,2.542e4,3404.8,18.742,0.06,218.557,166.758,3.96,0.818,4.7e7,0,239.371,0.497,0.497,0.335,0.037,0.125,0.02,0.079,-1.568e-4,0,0,0,0,2.583e-5,0.035,13.081,134.391,88.318,0.003,1.664,0.047,766.032,331.327,0.05,0.124
4.907,913.974,269.804,-19.101,269.894,19.112,19.718,7.126e-5,19.718,2.071e-4,6.966,0.643,28.61,-80.6,9.785,0.129,1.233e-6,1.694,-0.002,2.542e4,3404.8,18.742,0.06,218.59,166.758,3.962,0.815,4.679e7,0,237.101,0.496,0.496,0.335,0.036,0.124,0.017,0.068,-7.476e-5,0,0,0,0,8.187e-5,0.035,13.081,134.391,88.25,0.003,1.888,-0.041,764.731,331.274,0.05,0.125
4.957,927.44,268.852,-19.017,268.941,19.023,20.066,1.093e-4,20.066,3.122e-4,6.938,0.461,28.61,-80.6,9.785,0.052,9.759e-7,2.163,0.006,2.542e4,3404.8,18.742,0.06,218.829,166.758,3.981,0.812,4.657e7,0,234.845,0.496,0.496,0.336,0.036,0.124,0.007,0.027,4.878e-5,0,0,0,0,1.344e-4,0.034,13.081,134.391,88.151,0.002,1.981,-0.128,763.435,331.221,0.05,0.126
5.007,940.859,267.903,-18.938,267.992,18.939,20.412,1.48e-4,20.412,4.154e-4,6.922,0.205,28.61,-80.6,9.785,0.058,-3.283e-6,-2.139,0.007,2.542e4,3404.8,18.742,0.06,218.762,166.758,3.976,0.809,4.635e7,0,232.62,0.495,0.495,0.336,0.036,0.124,0.008,0.031,-1.268e-4,0,0,0,0,-1.324e-4,0.034,13.081,134.391,88.04,-0.001,1.963,-0.216,762.143,331.168,0.05,0.127
5.057,954.23,266.958,-18.859,267.047,18.859,20.758,1.866e-4,20.758,5.15e-4,6.917,0.022,28.61,-80.6,9.785,0.138,-3.897e-7,-1.656,-2.324e-5,2.542e4,3404.8,18.742,0.06,218.419,166.758,3.949,0.807,4.614e7,0,230.438,0.495,0.495,0.336,0.035,0.123,0.018,0.073,4.564e-4,0,0,0,0,-7.988e-5,0.034,13.081,134.391,87.944,-0.005,2.015,-0.302,760.856,331.116,0.05,0.128
5.107,967.555,266.017,-18.78,266.107,18.781,21.104,2.243e-4,21.104,6.089e-4,6.92,0.132,28.61,-80.6,9.785,0.205,-1.664e-6,-0.811,5.374e-5,2.542e4,3404.8,18.742,0.06,218.129,166.758,3.927,0.804,4.592e7,0,228.28,0.494,0.494,0.336,0.035,0.123,0.027,0.108,1.317e-4,0,0,0,0,-1.931e-5,0.034,13.081,134.391,87.881,-0.009,1.961,-0.389,759.574,331.063,0.05,0.129
5.157,980.832,265.08,-18.699,265.17,18.701,21.45,2.603e-4,21.45,6.954e-4,6.93,0.225,28.61,-80.6,9.785,0.244,0,0.314,-0.003,2.542e4,3404.8,18.742,0.06,217.941,166.758,3.913,0.801,4.571e7,0,226.137,0.494,0.494,0.336,0.035,0.123,0.033,0.129,3.789e-4,0,0,0,0,2.918e-6,0.034,13.081,134.391,87.869,-0.011,1.795,-0.475,758.296,331.011,0.05,0.129
5.207,994.063,264.147,-18.61,264.238,18.61,21.797,2.943e-4,21.797,7.737e-4,6.938,0.082,28.61,-80.6,9.785,0.183,-3.228e-6,1.363,-0.005,2.542e4,3404.8,18.742,0.06,218.119,166.758,3.926,0.799,4.55e7,0,224.004,0.493,0.493,0.336,0.034,0.122,0.024,0.096,5.511e-5,0,0,0,0,5.527e-5,0.034,13.081,134.391,87.913,-0.011,1.843,-0.561,757.022,330.959,0.05,0.13
5.257,1007.247,263.219,-18.516,263.31,18.517,22.144,3.265e-4,22.144,8.449e-4,6.935,0.192,28.61,-80.6,9.785,0.063,-2.401e-6,1.936,-0.006,2.542e4,3404.8,18.742,0.06,218.52,166.758,3.957,0.796,4.529e7,0,221.9,0.493,0.493,0.337,0.034,0.122,0.008,0.033,-4.031e-4,0,0,0,0,1.123e-4,0.034,13.081,134.391,87.999,-0.007,1.981,-0.647,755.753,330.907,0.05,0.131
5.307,1020.385,262.295,-18.428,262.386,18.432,22.49,3.579e-4,22.49,9.118e-4,6.921,0.389,28.61,-80.6,9.785,0.03,1.158e-6,-2.023,-0.015,2.542e4,3404.8,18.742,0.06,218.6,166.758,3.963,0.793,4.508e7,0,219.826,0.492,0.492,0.337,0.034,0.122,0.004,0.016,5.831e-5,0,0,0,0,-1.234e-4,0.034,13.081,134.391,88.101,0.002,1.921,-0.733,754.489,330.855,0.05,0.131
5.357,1033.477,261.376,-18.342,261.467,18.351,22.836,3.9e-4,22.836,9.785e-4,6.896,0.577,28.61,-80.6,9.785,0.118,-1.354e-6,-1.666,-7.296e-4,2.542e4,3404.8,18.742,0.06,218.228,166.758,3.935,0.791,4.487e7,0,217.789,0.492,0.492,0.337,0.034,0.121,0.016,0.062,9.67e-5,0,0,0,0,-8.437e-5,0.033,13.081,134.391,88.195,0.01,1.89,-0.818,753.228,330.803,0.05,0.132
5.407,1046.522,260.461,-18.259,260.551,18.273,23.18,4.24e-4,23.18,0.001,6.863,0.722,28.61,-80.6,9.785,0.187,-9.405e-7,-0.961,0.002,2.542e4,3404.8,18.742,0.06,217.932,166.758,3.912,0.788,4.467e7,0,215.784,0.491,0.491,0.337,0.033,0.121,0.025,0.097,2.71e-4,0,0,0,0,-2.826e-5,0.033,13.081,134.391,88.261,0.013,1.902,-0.902,751.973,330.752,0.05,0.132
5.457,1059.523,259.55,-18.178,259.64,18.196,23.522,4.604e-4,23.522,0.001,6.824,0.811,28.61,-80.6,9.785,0.229,-4.338e-7,0.018,-0.002,2.542e4,3404.8,18.742,0.06,217.735,166.758,3.897,0.785,4.446e7,0,213.805,0.491,0.491,0.337,0.033,0.121,0.031,0.12,2.649e-4,0,0,0,0,1.053e-8,0.033,13.081,134.391,88.285,0.014,1.994,-0.987,750.721,330.701,0.05,0.133
5.507,1072.478,258.643,-18.102,258.732,18.118,23.862,4.993e-4,23.862,0.001,6.785,0.754,28.61,-80.6,9.785,0.206,0,1.009,-0.005,2.542e4,3404.8,18.742,0.06,217.777,166.758,3.9,0.783,4.426e7,0,211.825,0.49,0.49,0.337,0.033,0.12,0.028,0.107,-1.017e-4,0,0,0,0,3.156e-5,0.033,13.081,134.391,88.258,0.016,2.013,-1.071,749.474,330.65,0.05,0.134
5.557,1085.387,257.74,-18.028,257.828,18.039,24.2,5.41e-4,24.2,0.001,6.749,0.641,28.61,-80.6,9.785,0.155,-5.177e-6,1.843,-0.008,2.542e4,3404.8,18.742,0.06,217.924,166.758,3.911,0.78,4.405e7,0,209.868,0.49,0.49,0.337,0.032,0.12,0.021,0.08,4.044e-5,0,0,0,0,1.061e-4,0.033,13.081,134.391,88.185,0.017,2.114,-1.155,748.232,330.599,0.05,0.134
5.607,1098.252,256.84,-17.959,256.928,17.963,24.537,5.854e-4,24.537,0.001,6.723,0.398,28.61,-80.6,9.785,0.042,-5.061e-6,2.278,-0.011,2.542e4,3404.8,18.742,0.06,218.301,166.758,3.94,0.777,4.385e7,0,207.922,0.49,0.49,0.338,0.032,0.12,0.005,0.021,-2.117e-4,0,0,0,0,1.633e-4,0.033,13.081,134.391,88.079,0.014,2.069,-1.239,746.994,330.548,0.05,0.135
5.657,1111.071,255.944,-17.893,256.032,17.894,24.873,6.324e-4,24.873,0.001,6.71,0.135,28.61,-80.6,9.785,0.084,-4.562e-6,-2.165,-0.003,2.542e4,3404.8,18.742,0.06,218.1,166.758,3.925,0.775,4.365e7,0,206.028,0.489,0.489,0.338,0.032,0.119,0.011,0.044,-4.771e-4,0,0,0,0,-1.485e-4,0.033,13.081,134.391,87.965,0.01,1.994,-1.322,745.812,330.498,0.05,0.135
5.707,1123.846,255.051,-17.826,255.139,17.826,25.208,6.811e-4,25.208,0.002,6.708,0.021,28.61,-80.6,9.784,0.161,-4.005e-6,-1.619,5.242e-5,2.542e4,3404.8,18.742,0.06,217.777,166.758,3.9,0.772,4.346e7,0,204.174,0.489,0.489,0.338,0.032,0.119,0.021,0.084,-2.928e-4,0,0,0,0,-8.364e-5,0.033,13.081,134.391,87.869,0.007,2.056,-1.405,744.644,330.447,0.05,0.136
5.757,1136.576,254.161,-17.757,254.25,17.757,25.544,7.311e-4,25.544,0.002,6.711,0.081,28.61,-80.6,9.784,0.193,-8.13e-7,-0.857,-0.001,2.542e4,3404.8,18.742,0.06,217.622,166.758,3.888,0.77,4.326e7,0,202.338,0.488,0.488,0.338,0.031,0.119,0.026,0.1,-4.611e-4,0,0,0,0,-2.362e-5,0.033,13.081,134.391,87.807,0.004,2.161,-1.488,743.479,330.397,0.05,0.137
5.807,1149.262,253.275,-17.686,253.364,17.686,25.88,7.818e-4,25.88,0.002,6.716,0.112,28.61,-80.6,9.784,0.209,-1.2e-6,0.015,0.003,2.542e4,3404.8,18.742,0.06,217.523,166.758,3.881,0.767,4.307e7,0,200.512,0.488,0.488,0.338,0.031,0.119,0.028,0.107,-1.79e-4,0,0,0,0,7.145e-9,0.032,13.081,134.391,87.786,0.003,2.147,-1.57,742.319,330.347,0.05,0.137
5.857,1161.904,252.393,-17.613,252.482,17.613,26.216,8.33e-4,26.216,0.002,6.722,0.081,28.61,-80.6,9.784,0.193,-1.821e-6,0.907,0.001,2.542e4,3404.8,18.742,0.06,217.539,166.758,3.882,0.765,4.287e7,0,198.695,0.487,0.488,0.338,0.031,0.118,0.026,0.1,-3.356e-4,0,0,0,0,2.677e-5,0.032,13.081,134.391,87.81,0.004,2.073,-1.652,741.162,330.298,0.05,0.138
5.907,1174.502,251.514,-17.533,251.604,17.534,26.552,8.849e-4,26.552,0.002,6.719,0.17,28.61,-80.6,9.784,0.072,-2.942e-6,1.433,0.002,2.542e4,3404.8,18.742,0.06,217.948,166.758,3.913,0.762,4.268e7,0,196.901,0.487,0.487,0.338,0.031,0.118,0.009,0.037,-1.157e-4,0,0,0,0,6.734e-5,0.032,13.081,134.391,87.872,0.006,2.322,-1.734,740.01,330.248,0.05,0.138
5.957,1187.055,250.639,-17.457,250.729,17.46,26.887,9.379e-4,26.887,0.002,6.707,0.32,28.61,-80.6,9.784,0.006,1.062e-6,-1.584,-0.001,2.542e4,3404.8,18.742,0.06,218.152,166.758,3.929,0.76,4.249e7,0,195.127,0.487,0.487,0.339,0.03,0.118,7.98e-4,0.003,2.051e-4,0,0,0,0,-8.284e-5,0.032,13.081,134.391,87.949,0.009,2.299,-1.816,738.861,330.198,0.05,0.139
6.007,1199.566,249.768,-17.383,249.858,17.39,27.222,9.924e-4,27.222,0.002,6.687,0.473,28.61,-80.6,9.784,0.086,0,-1.381,0.002,2.542e4,3404.8,18.742,0.06,217.815,166.758,3.903,0.757,4.23e7,0,193.381,0.486,0.486,0.339,0.03,0.117,0.011,0.044,-3.637e-4,0,0,0,0,-6.344e-5,0.032,13.081,134.391,88.025,0.011,2.31,-1.897,737.717,330.149,0.05,0.14
6.057,1212.032,248.901,-17.313,248.99,17.321,27.556,0.001,27.556,0.002,6.661,0.545,28.61,-80.6,9.784,0.128,7.064e-7,-0.953,8.467e-4,2.542e4,3404.8,18.742,0.06,217.625,166.758,3.889,0.754,4.211e7,0,191.648,0.486,0.486,0.339,0.03,0.117,0.017,0.065,-3.67e-4,0,0,0,0,-3.045e-5,0.032,13.081,134.391,88.084,0.009,2.224,-1.978,736.577,330.1,0.05,0.14
6.107,1224.456,248.037,-17.243,248.126,17.254,27.888,0.001,27.888,0.002,6.632,0.627,28.61,-80.6,9.784,0.172,-6.604e-7,-0.327,0.003,2.542e4,3404.8,18.742,0.06,217.425,166.758,3.873,0.752,4.192e7,0,189.945,0.485,0.486,0.339,0.03,0.117,0.023,0.088,-9.623e-5,0,0,0,0,-3.615e-6,0.032,13.081,134.391,88.116,0.005,2.275,-2.059,735.44,330.051,0.05,0.141
6.157,1236.836,247.177,-17.177,247.265,17.187,28.219,0.001,28.219,0.002,6.6,0.602,28.61,-80.6,9.784,0.162,-1.111e-6,0.344,0.005,2.542e4,3404.8,18.742,0.06,217.423,166.758,3.873,0.749,4.173e7,0,188.244,0.485,0.485,0.339,0.03,0.116,0.021,0.083,-1.962e-5,0,0,0,0,4.02e-6,0.032,13.081,134.391,88.115,-0.001,2.233,-2.139,734.308,330.002,0.05,0.142
6.207,1249.173,246.319,-17.113,246.407,17.121,28.548,0.001,28.548,0.002,6.572,0.503,28.61,-80.6,9.784,0.113,-7.86e-7,0.904,0.011,2.542e4,3404.8,18.742,0.06,217.564,166.758,3.884,0.747,4.155e7,0,186.553,0.485,0.485,0.339,0.029,0.116,0.015,0.058,-8.909e-5,0,0,0,0,2.793e-5,0.032,13.081,134.391,88.083,-0.007,2.159,-2.22,733.179,329.954,0.05,0.142
6.257,1261.468,245.465,-17.053,245.553,17.056,28.876,0.001,28.876,0.003,6.552,0.335,28.61,-80.6,9.784,0.027,-1.133e-6,1.17,0.036,2.542e4,3404.8,18.742,0.06,217.845,166.758,3.905,0.744,4.136e7,0,184.876,0.484,0.484,0.339,0.029,0.116,0.004,0.014,-3.089e-4,0,0,0,0,4.715e-5,0.031,13.081,134.391,88.029,-0.012,2.006,-2.3,732.054,329.905,0.05,0.143
6.307,1273.72,244.614,-16.992,244.701,16.994,29.204,0.001,29.204,0.003,6.538,0.222,28.61,-80.6,9.784,0.033,-2.684e-6,-1.16,0.03,2.542e4,3404.8,18.742,0.06,217.785,166.758,3.901,0.742,4.117e7,0,183.232,0.484,0.484,0.34,0.029,0.116,0.004,0.017,2.965e-4,0,0,0,0,-4.665e-5,0.031,13.081,134.391,87.969,-0.015,1.989,-2.379,730.933,329.857,0.05,0.144
6.357,1285.929,243.766,-16.931,243.853,16.932,29.53,0.001,29.53,0.003,6.529,0.147,28.61,-80.6,9.784,0.074,0,-0.948,0.01,2.542e4,3404.8,18.742,0.06,217.595,166.758,3.886,0.74,4.099e7,0,181.61,0.484,0.484,0.34,0.029,0.115,0.01,0.038,4.283e-4,0,0,0,0,-3.136e-5,0.031,13.081,134.391,87.916,-0.015,2.021,-2.459,729.816,329.809,0.05,0.144
6.407,1298.097,242.921,-16.869,243.009,16.87,29.857,0.001,29.857,0.003,6.523,0.103,28.61,-80.6,9.784,0.099,1.335e-6,-0.618,0.004,2.542e4,3404.8,18.742,0.06,217.468,166.758,3.877,0.737,4.081e7,0,180.004,0.483,0.483,0.34,0.029,0.115,0.013,0.05,3.376e-4,0,0,0,0,-1.343e-5,0.031,13.081,134.391,87.876,-0.012,2.061,-2.538,728.703,329.761,0.05,0.145
6.457,1310.222,242.079,-16.809,242.167,16.809,30.183,0.001,30.183,0.003,6.519,0.053,28.61,-80.6,9.784,0.126,0,-0.176,0.006,2.542e4,3404.8,18.742,0.06,217.334,166.758,3.866,0.735,4.062e7,0,178.411,0.483,0.483,0.34,0.028,0.115,0.017,0.064,3.394e-4,0,0,0,0,-1.099e-6,0.031,13.081,134.391,87.856,-0.006,2.007,-2.616,727.594,329.713,0.05,0.145
6.507,1322.305,241.24,-16.745,241.328,16.746,30.509,0.002,30.509,0.003,6.516,0.08,28.61,-80.6,9.784,0.111,2.935e-7,0.257,0.01,2.542e4,3404.8,18.742,0.06,217.351,166.758,3.868,0.732,4.044e7,0,176.833,0.483,0.483,0.34,0.028,0.114,0.015,0.056,-1.189e-4,0,0,0,0,2.36e-6,0.031,13.081,134.391,87.859,0.004,2.034,-2.695,726.489,329.666,0.05,0.146
6.557,1334.346,240.404,-16.683,240.493,16.684,30.834,0.002,30.834,0.003,6.512,0.087,28.61,-80.6,9.784,0.106,-3.107e-7,0.669,0.006,2.542e4,3404.8,18.742,0.06,217.335,166.758,3.866,0.73,4.026e7,0,175.265,0.482,0.482,0.34,0.028,0.114,0.014,0.053,2.785e-4,0,0,0,0,1.607e-5,0.031,13.081,134.391,87.883,0.013,1.93,-2.773,725.387,329.618,0.05,0.147
6.607,1346.345,239.572,-16.621,239.66,16.621,31.16,0.002,31.16,0.003,6.507,0.122,28.61,-80.6,9.784,0.084,2.136e-6,1.026,0.012,2.542e4,3404.8,18.742,0.06,217.38,166.758,3.87,0.727,4.008e7,0,173.711,0.482,0.482,0.34,0.028,0.114,0.011,0.042,4.815e-4,0,0,0,0,3.807e-5,0.031,13.081,134.391,87.926,0.02,1.818,-2.851,724.29,329.571,0.05,0.147
6.657,1358.303,238.742,-16.558,238.831,16.559,31.485,0.002,31.485,0.003,6.499,0.189,28.61,-80.6,9.784,0.043,-1.861e-6,1.27,0.023,2.542e4,3404.8,18.742,0.06,217.495,166.758,3.879,0.725,3.99e7,0,172.173,0.482,0.482,0.34,0.028,0.114,0.006,0.022,4.852e-4,0,0,0,0,5.869e-5,0.031,13.081,134.391,87.984,0.025,1.726,-2.929,723.196,329.524,0.05,0.148
6.707,1370.219,237.916,-16.493,238.005,16.496,31.81,0.002,31.81,0.003,6.487,0.32,28.61,-80.6,9.784,0.033,-1.555e-6,-1.287,0.027,2.542e4,3404.8,18.742,0.06,217.498,166.758,3.879,0.723,3.973e7,0,170.66,0.481,0.481,0.341,0.027,0.113,0.004,0.017,2.461e-4,0,0,0,0,-6.069e-5,0.03,13.081,134.391,88.049,0.026,1.76,-3.006,722.106,329.477,0.05,0.148
6.757,1382.095,237.093,-16.43,237.181,16.437,32.133,0.002,32.133,0.003,6.466,0.486,28.61,-80.6,9.784,0.13,-7.58e-7,-0.983,0.006,2.542e4,3404.8,18.742,0.06,217.109,166.758,3.849,0.72,3.955e7,0,169.176,0.481,0.481,0.341,0.027,0.113,0.017,0.065,2.208e-4,0,0,0,0,-3.569e-5,0.03,13.081,134.391,88.107,0.025,1.912,-3.084,721.019,329.43,0.05,0.149
6.807,1393.929,236.273,-16.369,236.361,16.379,32.456,0.002,32.456,0.003,6.439,0.574,28.61,-80.6,9.784,0.182,-9.286e-7,-0.421,0.005,2.542e4,3404.8,18.742,0.06,216.884,166.758,3.832,0.718,3.937e7,0,167.703,0.481,0.481,0.341,0.027,0.113,0.024,0.092,-1.131e-4,0,0,0,0,-6.582e-6,0.03,13.081,134.391,88.143,0.021,1.978,-3.161,719.937,329.384,0.05,0.15
6.857,1405.722,235.456,-16.311,235.543,16.321,32.777,0.002,32.777,0.003,6.411,0.568,28.61,-80.6,9.784,0.182,-3.725e-7,0.213,0.002,2.542e4,3404.8,18.742,0.06,216.85,166.758,3.829,0.715,3.92e7,0,166.231,0.48,0.48,0.341,0.027,0.113,0.024,0.092,-1.384e-4,0,0,0,0,1.706e-6,0.03,13.081,134.391,88.148,0.016,1.955,-3.237,718.858,329.337,0.05,0.15
6.907,1417.474,234.642,-16.254,234.729,16.264,33.097,0.002,33.097,0.003,6.382,0.557,28.61,-80.6,9.784,0.177,-5.251e-7,0.855,0.006,2.542e4,3404.8,18.742,0.06,216.835,166.758,3.828,0.713,3.903e7,0,164.779,0.48,0.48,0.341,0.027,0.112,0.023,0.09,4.803e-4,0,0,0,0,2.752e-5,0.03,13.081,134.391,88.12,0.011,2.046,-3.314,717.783,329.291,0.05,0.151
6.957,1429.186,233.831,-16.2,233.917,16.206,33.416,0.002,33.416,0.004,6.356,0.464,28.61,-80.6,9.784,0.124,-2.788e-6,1.381,0.004,2.542e4,3404.8,18.742,0.06,216.996,166.758,3.841,0.711,3.885e7,0,163.33,0.48,0.48,0.341,0.026,0.112,0.016,0.062,-5.102e-5,0,0,0,0,7.241e-5,0.03,13.081,134.391,88.063,0.006,2.055,-3.39,716.711,329.245,0.05,0.152
7.007,1440.858,233.022,-16.148,233.108,16.151,33.733,0.002,33.733,0.004,6.337,0.324,28.61,-80.6,9.783,0.041,-2.537e-6,1.657,0.017,2.542e4,3404.8,18.742,0.06,217.269,166.758,3.861,0.708,3.868e7,0,161.893,0.479,0.479,0.341,0.026,0.112,0.005,0.02,4.33e-4,0,0,0,0,1.05e-4,0.03,13.081,134.391,87.985,4.681e-4,2.021,-3.466,715.644,329.199,0.05,0.152
7.057,1452.488,232.216,-16.096,232.302,16.098,34.049,0.002,34.049,0.004,6.323,0.204,28.61,-80.6,9.783,0.033,2.455e-6,-1.679,0.016,2.542e4,3404.8,18.742,0.06,217.262,166.758,3.861,0.706,3.851e7,0,160.48,0.479,0.479,0.341,0.026,0.111,0.004,0.017,-3.033e-4,0,0,0,0,-1.085e-4,0.03,13.081,134.391,87.901,-0.003,2.05,-3.541,714.58,329.153,0.05,0.153
7.107,1464.079,231.412,-16.047,231.499,16.047,34.365,0.002,34.365,0.004,6.317,0.056,28.61,-80.6,9.783,0.123,-6.769e-7,-1.404,0.005,2.542e4,3404.8,18.742,0.06,216.899,166.758,3.833,0.704,3.834e7,0,159.083,0.479,0.479,0.342,0.026,0.111,0.016,0.062,1.553e-4,0,0,0,0,-7.643e-5,0.03,13.081,134.391,87.822,-0.003,1.978,-3.617,713.519,329.107,0.05,0.154
7.157,1475.63,230.611,-15.996,230.698,15.996,34.681,0.002,34.681,0.004,6.317,0.024,28.61,-80.6,9.783,0.173,6.234e-7,-0.904,0.002,2.542e4,3404.8,18.742,0.06,216.685,166.758,3.817,0.701,3.817e7,0,157.704,0.478,0.478,0.342,0.026,0.111,0.023,0.087,4.55e-4,0,0,0,0,-3.189e-5,0.03,13.081,134.391,87.764,-0.002,1.985,-3.692,712.463,329.062,0.05,0.154
7.207,1487.14,229.813,-15.942,229.9,15.942,34.997,0.002,34.997,0.004,6.318,0.027,28.61,-80.6,9.783,0.178,0,-0.334,2.686e-4,2.542e4,3404.8,18.742,0.06,216.638,166.758,3.813,0.699,3.8e7,0,156.335,0.478,0.478,0.342,0.026,0.111,0.023,0.089,-5.873e-5,0,0,0,0,-4.377e-6,0.029,13.081,134.391,87.733,2.333e-4,2.064,-3.766,711.41,329.016,0.05,0.155
7.257,1498.611,229.017,-15.889,229.104,15.89,35.313,0.002,35.313,0.004,6.32,0.047,28.61,-80.6,9.783,0.189,-5.129e-7,0.283,0.004,2.542e4,3404.8,18.742,0.06,216.563,166.758,3.807,0.697,3.783e7,0,154.973,0.478,0.478,0.342,0.026,0.11,0.025,0.095,-3.679e-4,0,0,0,0,3.173e-6,0.029,13.081,134.391,87.732,0.003,1.988,-3.841,710.36,328.971,0.05,0.155
7.307,1510.042,228.224,-15.833,228.311,15.833,35.629,0.003,35.629,0.004,6.321,0.029,28.61,-80.6,9.783,0.143,5.699e-7,0.825,0.005,2.542e4,3404.8,18.742,0.06,216.7,166.758,3.818,0.694,3.766e7,0,153.62,0.478,0.478,0.342,0.025,0.11,0.019,0.071,-4.438e-4,0,0,0,0,2.71e-5,0.029,13.081,134.391,87.761,0.006,2.033,-3.915,709.315,328.926,0.05,0.156
7.357,1521.433,227.434,-15.776,227.521,15.777,35.945,0.003,35.945,0.004,6.317,0.133,28.61,-80.6,9.783,0.077,-3.141e-6,1.178,0.003,2.542e4,3404.8,18.742,0.06,216.912,166.758,3.834,0.692,3.749e7,0,152.28,0.477,0.477,0.342,0.025,0.11,0.01,0.038,-4.275e-4,0,0,0,0,5.569e-5,0.029,13.081,134.391,87.812,0.011,2.069,-3.989,708.273,328.881,0.05,0.157
7.407,1532.785,226.646,-15.72,226.734,15.722,36.261,0.003,36.261,0.004,6.308,0.238,28.61,-80.6,9.783,0.007,1.764e-6,1.311,0.03,2.542e4,3404.8,18.742,0.06,217.137,166.758,3.851,0.69,3.733e7,0,150.956,0.477,0.477,0.342,0.025,0.11,9.174e-4,0.004,3.105e-5,0,0,0,0,6.946e-5,0.029,13.081,134.391,87.876,0.015,2.074,-4.063,707.234,328.837,0.05,0.157
7.457,1544.098,225.862,-15.665,225.949,15.669,36.576,0.003,36.576,0.004,6.294,0.318,28.61,-80.6,9.783,0.048,-2.869e-6,-1.254,0.009,2.542e4,3404.8,18.742,0.06,216.954,166.758,3.837,0.687,3.716e7,0,149.644,0.477,0.477,0.342,0.025,0.109,0.006,0.025,-1.079e-4,0,0,0,0,-6.392e-5,0.029,13.081,134.391,87.941,0.021,2.02,-4.137,706.199,328.792,0.05,0.158
7.507,1555.372,225.08,-15.611,225.167,15.617,36.89,0.003,36.89,0.004,6.275,0.403,28.61,-80.6,9.783,0.107,-6.954e-7,-0.999,0.003,2.542e4,3404.8,18.742,0.06,216.709,166.758,3.819,0.685,3.7e7,0,148.351,0.476,0.476,0.342,0.025,0.109,0.014,0.053,1.635e-4,0,0,0,0,-4.085e-5,0.029,13.081,134.391,87.998,0.024,2.016,-4.21,705.168,328.748,0.05,0.158
7.557,1566.606,224.3,-15.56,224.388,15.566,37.203,0.003,37.203,0.004,6.255,0.428,28.61,-80.6,9.783,0.127,-2.451e-6,-0.647,0.006,2.542e4,3404.8,18.742,0.06,216.604,166.758,3.811,0.683,3.683e7,0,147.063,0.476,0.476,0.343,0.025,0.109,0.017,0.063,-2.289e-4,0,0,0,0,-1.726e-5,0.029,13.081,134.391,88.039,0.025,1.924,-4.283,704.14,328.703,0.05,0.159
