# Time (s),Altitude (m),Vertical velocity (m/s),Vertical acceleration (m/s²),Total velocity (m/s),Total acceleration (m/s²),Position East of launch (m),Position North of launch (m),Lateral distance (m),Lateral direction (°),Lateral velocity (m/s),Lateral acceleration (m/s²),Latitude (°),Longitude (°),Gravitational acceleration (m/s²),Angle of attack (°),Roll rate (°/s),Pitch rate (°/s),Yaw rate (°/s),Mass (g),Motor mass (g),Longitudinal moment of inertia (kg·m²),Rotational moment of inertia (kg·m²),CP location (cm),CG location (cm),Stability margin calibers (​),Mach number (​),Reynolds number (​),Thrust (N),Drag force (N),Drag coefficient (​),Axial drag coefficient (​),Friction drag coefficient (​),Pressure drag coefficient (​),Base drag coefficient (​),Normal force coefficient (​),Pitch moment coefficient (​),Yaw moment coefficient (​),Side force coefficient (​),Roll moment coefficient (​),Roll forcing coefficient (​),Roll damping coefficient (​),Pitch damping coefficient (​),Coriolis acceleration (m/s²),Reference length (cm),Reference area (cm²),Vertical orientation (zenith) (°),Lateral orientation (azimuth) (°),Wind velocity (m/s),Air temperature (°C),Air pressure (mbar),Speed of sound (m/s),Simulation time step (s),Computation time (s)
0.01,-2.281e-4,-0.046,-4.562,0.046,4.562,0,0,0,0,0,0,32.32,106.764,9.791,91.304,0,0,0,3.092e4,8057.547,15.235,0.065,NaN,157.992,NaN,0.006,2.737e5,161.698,-4.827e-7,0.621,-1.817e-5,0.495,0.044,0.082,NaN,NaN,NaN,NaN,NaN,NaN,NaN,NaN,5.623e-6,13.081,134.391,90,0,2.004,33.904,867.369,351.845,0.01,0.004
0.02,2.949e-4,0.059,5.901,0.059,5.901,0,0,0,0,0,0,32.32,106.764,9.791,88.318,0,0,0,3.091e4,8051.093,15.231,0.065,NaN,157.977,NaN,0.006,2.744e5,485.095,1.036e-6,0.621,3.88e-5,0.495,0.044,0.082,NaN,NaN,NaN,NaN,NaN,NaN,NaN,NaN,7.271e-6,13.081,134.391,90,0,2.009,33.904,867.369,351.845,0.01,0.006
0.03,0.002,0.223,16.368,0.223,16.368,0,0,0,0,0,0,32.32,106.764,9.791,83.692,0,0,0,3.091e4,8044.64,15.228,0.065,NaN,157.963,NaN,0.006,2.767e5,808.492,5.281e-5,0.62,0.002,0.494,0.044,0.082,NaN,NaN,NaN,NaN,NaN,NaN,NaN,NaN,2.744e-5,13.081,134.391,90,0,2.014,33.904,867.369,351.845,0.01,0.007
0.04,0.005,0.491,26.84,0.491,26.84,0,0,0,0,0,0,32.32,106.764,9.791,76.333,0,0,0,3.09e4,8038.187,15.224,0.065,NaN,157.948,NaN,0.006,2.837e5,1131.889,5.168e-4,0.617,0.018,0.491,0.044,0.082,NaN,NaN,NaN,NaN,NaN,NaN,NaN,NaN,6.052e-5,13.081,134.391,90,0,2.019,33.904,867.369,351.845,0.01,0.008
0.05,0.012,0.864,37.316,0.864,37.316,0,0,0,0,0,0,32.32,106.764,9.791,66.884,0,0,0,3.089e4,8031.733,15.221,0.065,NaN,157.934,NaN,0.006,3.005e5,1455.286,0.002,0.611,0.077,0.485,0.044,0.082,NaN,NaN,NaN,NaN,NaN,NaN,NaN,NaN,1.065e-4,13.081,134.391,90,0,2.024,33.904,867.368,351.845,0.01,0.009
0.06,0.023,1.342,47.796,1.342,47.796,0,0,0,0,0,0,32.32,106.764,9.791,56.501,0,0,0,3.089e4,8025.28,15.218,0.065,NaN,157.92,NaN,0.007,3.32e5,1778.683,0.008,0.6,0.198,0.474,0.044,0.082,NaN,NaN,NaN,NaN,NaN,NaN,NaN,NaN,1.654e-4,13.081,134.391,90,0,2.028,33.904,867.368,351.845,0.01,0.01
0.07,0.039,1.925,58.28,1.925,58.28,0,0,0,0,0,0,32.32,106.764,9.791,46.538,0,0,0,3.088e4,8018.827,15.214,0.065,NaN,157.905,NaN,0.008,3.821e5,2102.08,0.018,0.585,0.356,0.459,0.044,0.082,NaN,NaN,NaN,NaN,NaN,NaN,NaN,NaN,2.372e-4,13.081,134.391,90,0,2.031,33.904,867.367,351.845,0.01,0.011
0.08,0.062,2.612,68.769,2.612,68.769,0,0,0,0,0,0,32.32,106.764,9.791,37.909,0,0,0,3.087e4,8012.373,15.211,0.065,NaN,157.891,NaN,0.009,4.521e5,2425.477,0.036,0.569,0.5,0.443,0.044,0.082,NaN,NaN,NaN,NaN,NaN,NaN,NaN,NaN,3.22e-4,13.081,134.391,90,0,2.034,33.904,867.365,351.845,0.01,0.012
0.09,0.092,3.372,76.003,3.372,76.003,0,0,0,0,0,0,32.32,106.764,9.791,31.143,0,0,0,3.086e4,8000.507,15.205,0.065,NaN,157.864,NaN,0.011,5.38e5,2647.848,0.061,0.553,0.596,0.427,0.044,0.082,NaN,NaN,NaN,NaN,NaN,NaN,NaN,NaN,4.156e-4,13.081,134.391,90,0,2.038,33.904,867.363,351.845,0.01,0.013
0.1,0.13,4.137,76.493,4.137,76.493,0,0,0,0,0,0,32.32,106.764,9.791,26.26,0,0,0,3.085e4,7987.288,15.198,0.065,NaN,157.834,NaN,0.013,6.299e5,2661.853,0.091,0.539,0.644,0.413,0.044,0.082,NaN,NaN,NaN,NaN,NaN,NaN,NaN,NaN,5.099e-4,13.081,134.391,90,0,2.041,33.904,867.361,351.844,0.01,0.014
0.11,0.175,4.905,76.779,4.905,76.779,0,0,0,0,0,0,32.32,106.764,9.791,22.749,0,0,0,3.084e4,7974.069,15.191,0.065,NaN,157.805,NaN,0.015,7.262e5,2669.543,0.124,0.527,0.662,0.401,0.044,0.082,NaN,NaN,NaN,NaN,NaN,NaN,NaN,NaN,6.045e-4,13.081,134.391,90,0,2.057,33.903,867.358,351.844,0.01,0.015
0.12,0.228,5.675,77.064,5.675,77.064,0,0,0,0,0,0,32.32,106.764,9.791,20.058,0,0,0,3.082e4,7960.85,15.184,0.065,NaN,157.775,NaN,0.017,8.249e5,2677.233,0.161,0.517,0.665,0.391,0.044,0.082,NaN,NaN,NaN,NaN,NaN,NaN,NaN,NaN,6.994e-4,13.081,134.391,90,0,2.072,33.903,867.355,351.844,0.01,0.016
0.13,0.288,6.448,77.35,6.448,77.35,0,0,0,0,0,0,32.32,106.764,9.791,17.938,0,0,0,3.081e4,7947.631,15.177,0.065,NaN,157.745,NaN,0.019,9.255e5,2684.924,0.2,0.508,0.66,0.382,0.044,0.082,NaN,NaN,NaN,NaN,NaN,NaN,NaN,NaN,7.947e-4,13.081,134.391,90,0,2.088,33.903,867.352,351.844,0.01,0.017
0.14,0.357,7.225,77.635,7.225,77.635,0,0,0,0,0,0,32.32,106.764,9.791,16.23,0,0,0,3.08e4,7934.412,15.17,0.065,NaN,157.716,NaN,0.021,1.027e6,2692.614,0.243,0.5,0.649,0.374,0.044,0.082,NaN,NaN,NaN,NaN,NaN,NaN,NaN,NaN,8.904e-4,13.081,134.391,90,0,2.103,33.902,867.348,351.844,0.01,0.018
0.15,0.433,8.004,77.921,8.004,77.921,0,0,0,0,0,0,32.32,106.764,9.791,14.826,0,0,0,3.078e4,7921.192,15.163,0.065,NaN,157.686,NaN,0.024,1.13e6,2700.305,0.287,0.493,0.634,0.367,0.044,0.082,NaN,NaN,NaN,NaN,NaN,NaN,NaN,NaN,9.864e-4,13.081,134.391,90,0,2.119,33.902,867.343,351.843,0.01,0.019
0.16,0.517,8.785,78.207,8.785,78.207,0,0,0,0,0,0,32.32,106.764,9.791,13.537,0,0,0,3.077e4,7907.973,15.156,0.065,NaN,157.656,NaN,0.026,1.234e6,2707.995,0.333,0.487,0.617,0.361,0.044,0.082,NaN,NaN,NaN,NaN,NaN,NaN,NaN,NaN,0.001,13.081,134.391,90,0,2.115,33.901,867.338,351.843,0.01,0.02
0.17,0.609,9.57,78.494,9.57,78.494,0,0,0,0,0,0,32.32,106.764,9.791,12.445,0,0,0,3.076e4,7894.754,15.149,0.065,NaN,157.626,NaN,0.028,1.338e6,2715.685,0.381,0.481,0.6,0.355,0.044,0.082,NaN,NaN,NaN,NaN,NaN,NaN,NaN,NaN,0.001,13.081,134.391,90,0,2.112,33.901,867.333,351.843,0.01,0.021
0.18,0.708,10.358,78.78,10.358,78.78,0,0,0,0,0,0,32.32,106.764,9.791,11.507,0,0,0,3.074e4,7881.535,15.142,0.065,NaN,157.597,NaN,0.03,1.443e6,2723.376,0.431,0.476,0.584,0.35,0.044,0.082,NaN,NaN,NaN,NaN,NaN,NaN,NaN,NaN,0.001,13.081,134.391,90,0,2.109,33.9,867.327,351.842,0.01,0.022
0.19,0.816,11.148,79.067,11.148,79.067,0,0,0,0,0,0,32.32,106.764,9.791,10.694,0,0,0,3.073e4,7868.316,15.135,0.065,NaN,157.567,NaN,0.032,1.549e6,2731.066,0.484,0.471,0.569,0.345,0.044,0.082,NaN,NaN,NaN,NaN,NaN,NaN,NaN,NaN,0.001,13.081,134.391,90,0,2.105,33.9,867.32,351.842,0.01,0.022
0.2,0.931,11.942,79.354,11.942,79.354,0,0,0,0,0,0,32.32,106.764,9.791,9.983,0,0,0,3.072e4,7855.096,15.128,0.065,NaN,157.537,NaN,0.034,1.656e6,2738.757,0.54,0.467,0.555,0.341,0.044,0.082,NaN,NaN,NaN,NaN,NaN,NaN,NaN,NaN,0.001,13.081,134.391,90,0,2.102,33.899,867.313,351.842,0.01,0.023
0.21,1.055,12.738,79.641,12.738,79.641,0,0,0,0,0,0,32.32,106.764,9.791,9.293,0,0,0,3.07e4,7841.877,15.121,0.065,NaN,157.507,NaN,0.037,1.762e6,2746.447,0.597,0.463,0.542,0.337,0.044,0.082,NaN,NaN,NaN,NaN,NaN,NaN,NaN,NaN,0.002,13.081,134.391,90,0,2.084,33.898,867.306,351.841,0.01,0.024
0.22,1.186,13.537,79.928,13.537,79.928,0,0,0,0,0,0,32.32,106.764,9.791,8.68,0,0,0,3.069e4,7828.658,15.114,0.065,NaN,157.477,NaN,0.039,1.87e6,2754.138,0.658,0.459,0.531,0.333,0.044,0.082,NaN,NaN,NaN,NaN,NaN,NaN,NaN,NaN,0.002,13.081,134.391,90,0,2.067,33.897,867.298,351.841,0.01,0.025
0.23,1.325,14.339,80.215,14.339,80.215,0,0,0,0,0,0,32.32,106.764,9.791,8.133,0,0,0,3.068e4,7815.439,15.107,0.065,NaN,157.447,NaN,0.041,1.978e6,2761.828,0.721,0.456,0.52,0.33,0.044,0.082,NaN,NaN,NaN,NaN,NaN,NaN,NaN,NaN,0.002,13.081,134.391,90,0,2.049,33.897,867.29,351.84,0.01,0.026
0.24,1.473,15.144,80.502,15.144,80.502,0,0,0,0,0,0,32.32,106.764,9.791,7.64,0,0,0,3.066e4,7802.22,15.1,0.065,NaN,157.417,NaN,0.043,2.086e6,2769.518,0.788,0.453,0.51,0.326,0.044,0.082,NaN,NaN,NaN,NaN,NaN,NaN,NaN,NaN,0.002,13.081,134.391,90,0,2.031,33.896,867.281,351.84,0.01,0.027
0.25,1.628,15.951,80.789,15.951,80.789,0,0,0,0,0,0,32.32,106.764,9.791,7.195,0,0,0,3.065e4,7788.959,15.093,0.065,NaN,157.387,NaN,0.046,2.195e6,2777.182,0.859,0.45,0.502,0.324,0.044,0.082,NaN,NaN,NaN,NaN,NaN,NaN,NaN,NaN,0.002,13.081,134.391,90,0,2.014,33.895,867.271,351.839,0.01,0.029
0.26,1.792,16.761,80.976,16.761,80.976,0,0,0,0,0,0,32.32,106.764,9.791,6.778,0,0,0,3.064e4,7775.329,15.086,0.065,NaN,157.356,NaN,0.048,2.305e6,2781.738,0.937,0.45,0.498,0.324,0.044,0.082,NaN,NaN,NaN,NaN,NaN,NaN,NaN,NaN,0.002,13.081,134.391,90,0,1.992,33.894,867.262,351.839,0.01,0.03
0.27,1.963,17.572,81.093,17.572,81.093,0,0,0,0,0,0,32.32,106.764,9.791,6.399,0,0,0,3.062e4,7761.699,15.078,0.065,NaN,157.325,NaN,0.05,2.414e6,2784.16,1.02,0.45,0.493,0.324,0.044,0.082,NaN,NaN,NaN,NaN,NaN,NaN,NaN,NaN,0.002,13.081,134.391,90,0,1.971,33.893,867.251,351.838,0.01,0.031
0.28,2.143,18.384,81.209,18.384,81.209,0,0,0,0,0,0,32.32,106.764,9.791,6.052,0,0,0,3.061e4,7748.069,15.071,0.065,NaN,157.294,NaN,0.053,2.524e6,2786.582,1.106,0.45,0.49,0.324,0.044,0.082,NaN,NaN,NaN,NaN,NaN,NaN,NaN,NaN,0.002,13.081,134.391,90,0,1.949,33.892,867.241,351.837,0.01,0.031
0.29,2.331,19.197,81.326,19.197,81.326,0,0,0,0,0,0,32.32,106.764,9.791,5.733,0,0,0,3.06e4,7734.439,15.064,0.065,NaN,157.263,NaN,0.055,2.634e6,2789.004,1.196,0.45,0.486,0.324,0.044,0.082,NaN,NaN,NaN,NaN,NaN,NaN,NaN,NaN,0.002,13.081,134.391,90,0,1.927,33.891,867.229,351.837,0.01,0.032
0.3,2.527,20.011,81.443,20.011,81.443,0,0,0,0,0,0,32.32,106.764,9.791,5.44,0,0,0,3.058e4,7720.809,15.056,0.065,NaN,157.232,NaN,0.057,2.744e6,2791.426,1.291,0.45,0.483,0.324,0.044,0.082,NaN,NaN,NaN,NaN,NaN,NaN,NaN,NaN,0.002,13.081,134.391,90,0,1.906,33.89,867.218,351.836,0.01,0.033
0.31,2.731,20.826,81.559,20.826,81.559,0,0,0,0,0,0,32.32,106.764,9.791,5.232,0,0,0,3.057e4,7707.179,15.049,0.065,NaN,157.201,NaN,0.059,2.855e6,2793.848,1.391,0.45,0.481,0.324,0.044,0.082,NaN,NaN,NaN,NaN,NaN,NaN,NaN,NaN,0.003,13.081,134.391,90,0,1.907,33.888,867.205,351.835,0.01,0.034
0.32,2.944,21.643,81.676,21.643,81.676,0,0,0,0,0,0,32.32,106.764,9.791,5.038,0,0,0,3.055e4,7693.548,15.042,0.065,NaN,157.17,NaN,0.062,2.966e6,2796.27,1.495,0.45,0.479,0.324,0.044,0.082,NaN,NaN,NaN,NaN,NaN,NaN,NaN,NaN,0.003,13.081,134.391,90,0,1.908,33.887,867.193,351.835,0.01,0.035
0.33,3.164,22.461,81.793,22.461,81.793,0,0,0,0,0,0,32.32,106.764,9.791,4.858,0,0,0,3.054e4,7679.918,15.035,0.065,NaN,157.139,NaN,0.064,3.078e6,2798.692,1.603,0.45,0.477,0.324,0.044,0.082,NaN,NaN,NaN,NaN,NaN,NaN,NaN,NaN,0.003,13.081,134.391,90,0,1.909,33.886,867.179,351.834,0.01,0.036
0.34,3.393,23.28,81.909,23.28,81.909,0,0,0,0,0,0,32.32,106.764,9.791,4.691,0,0,0,3.053e4,7666.288,15.027,0.065,NaN,157.107,NaN,0.066,3.189e6,2801.115,1.716,0.45,0.476,0.324,0.044,0.082,NaN,NaN,NaN,NaN,NaN,NaN,NaN,NaN,0.003,13.081,134.391,90,0,1.91,33.885,867.166,351.833,0.01,0.037
0.35,3.63,24.1,82.026,24.1,82.026,0,0,0,0,0,0,32.32,106.764,9.791,4.535,0,0,0,3.051e4,7652.658,15.02,0.065,NaN,157.076,NaN,0.069,3.301e6,2803.537,1.832,0.451,0.474,0.324,0.044,0.082,NaN,NaN,NaN,NaN,NaN,NaN,NaN,NaN,0.003,13.081,134.391,90,0,1.911,33.883,867.152,351.832,0.01,0.038
0.36,3.875,24.921,82.142,24.921,82.142,0,0,0,0,0,0,32.32,106.764,9.791,4.409,0,0,0,3.05e4,7639.028,15.013,0.065,NaN,157.045,NaN,0.071,3.412e6,2805.959,1.954,0.451,0.473,0.324,0.044,0.082,NaN,NaN,NaN,NaN,NaN,NaN,NaN,NaN,0.003,13.081,134.391,90,0,1.922,33.882,867.137,351.831,0.01,0.038
0.37,4.128,25.743,82.259,25.743,82.259,0,0,0,0,0,0,32.32,106.764,9.791,4.292,0,0,0,3.049e4,7625.398,15.005,0.065,NaN,157.014,NaN,0.073,3.524e6,2808.381,2.08,0.451,0.472,0.324,0.044,0.082,NaN,NaN,NaN,NaN,NaN,NaN,NaN,NaN,0.003,13.081,134.391,90,0,1.932,33.88,867.122,351.83,0.01,0.039
0.38,4.39,26.567,82.375,26.567,82.375,0,0,0,0,0,0,32.32,106.764,9.791,4.181,0,0,0,3.047e4,7611.768,14.998,0.065,NaN,156.982,NaN,0.076,3.637e6,2810.803,2.21,0.451,0.471,0.324,0.044,0.082,NaN,NaN,NaN,NaN,NaN,NaN,NaN,NaN,0.003,13.081,134.391,90,0,1.942,33.879,867.106,351.829,0.01,0.054
0.39,4.66,27.392,82.491,27.392,82.491,0,0,0,0,0,0,32.32,106.764,9.791,4.077,0,0,0,3.046e4,7598.137,14.991,0.065,NaN,156.951,NaN,0.078,3.749e6,2813.225,2.344,0.451,0.47,0.324,0.044,0.082,NaN,NaN,NaN,NaN,NaN,NaN,NaN,NaN,0.003,13.081,134.391,90,0,1.953,33.877,867.09,351.829,0.01,0.055
0.4,4.938,28.218,82.608,28.218,82.608,0,0,0,0,0,0,32.32,106.764,9.791,3.979,0,0,0,3.045e4,7584.507,14.983,0.065,NaN,156.92,NaN,0.08,3.862e6,2815.647,2.483,0.451,0.469,0.324,0.045,0.082,NaN,NaN,NaN,NaN,NaN,NaN,NaN,NaN,0.003,13.081,134.391,90,0,1.963,33.876,867.073,351.828,0.01,0.056
0.41,5.224,29.045,82.724,29.045,82.724,0,0,0,0,0,0,32.32,106.764,9.791,3.871,0,0,0,3.043e4,7570.877,14.976,0.065,NaN,156.888,NaN,0.083,3.974e6,2818.069,2.625,0.451,0.469,0.324,0.045,0.082,NaN,NaN,NaN,NaN,NaN,NaN,NaN,NaN,0.004,13.081,134.391,90,0,1.965,33.874,867.056,351.827,0.01,0.057
0.425,5.669,30.287,82.869,30.287,82.869,-1.356e-5,0,1.356e-5,-180,0.002,0.123,32.32,106.764,9.791,3.716,0,0.043,7.951e-6,3.041e4,7550.294,14.965,0.065,177.767,156.841,1.6,0.086,4.143e6,2820.803,2.846,0.451,0.467,0.324,0.045,0.082,0.598,0.957,4.403e-4,0,0,0,0,2.336e-6,0.004,13.081,134.391,90,-0.013,1.969,33.871,867.029,351.825,0.015,0.057
0.448,6.371,32.155,83.039,32.155,83.039,-8.597e-5,0,8.597e-5,-180,0.005,0.127,32.32,106.764,9.791,3.504,0,0.111,2.626e-5,3.038e4,7519.283,14.948,0.065,178.127,156.769,1.633,0.092,4.398e6,2823.434,3.195,0.451,0.466,0.324,0.045,0.082,0.558,0.912,6.583e-5,0,0,0,0,1.395e-5,0.004,13.081,134.391,89.998,-0.007,1.975,33.867,866.987,351.822,0.023,0.058
0.481,7.504,34.963,83.286,34.963,83.286,-3.147e-4,0,3.147e-4,-180,0.009,0.126,32.32,106.764,9.791,3.192,0,0.222,6.304e-5,3.033e4,7472.766,14.923,0.064,178.673,156.662,1.683,0.1,4.78e6,2827.186,3.757,0.451,0.463,0.324,0.045,0.083,0.501,0.843,-2.26e-5,0,0,0,0,4.73e-5,0.004,13.081,134.391,89.992,-0.01,1.963,33.861,866.92,351.818,0.034,0.059
0.531,9.357,39.141,83.652,39.141,83.652,-9.135e-4,-1.029e-8,9.135e-4,-179.999,0.015,0.113,32.32,106.764,9.791,2.819,0,0.404,2.204e-5,3.027e4,7403.852,14.886,0.064,179.35,156.502,1.747,0.111,5.349e6,2832.772,4.68,0.451,0.461,0.324,0.045,0.083,0.434,0.759,-4.173e-4,0,0,0,0,1.254e-4,0.005,13.081,134.391,89.977,-0.009,1.958,33.85,866.809,351.812,0.05,0.06
0.581,11.418,43.339,84.052,43.339,84.052,-0.002,-3.832e-8,0.002,-179.999,0.02,0.085,32.32,106.764,9.791,2.546,0,0.61,6.123e-5,3.02e4,7334.938,14.848,0.064,179.869,156.341,1.799,0.123,5.921e6,2839.442,5.716,0.451,0.46,0.324,0.045,0.083,0.387,0.696,3.879e-4,0,0,0,0,2.329e-4,0.005,13.081,134.391,89.952,-0.008,1.983,33.838,866.685,351.805,0.05,0.06
0.631,13.691,47.553,84.37,47.553,84.37,-0.003,-9.703e-8,0.003,-179.998,0.023,0.036,32.32,106.764,9.791,2.276,0,0.84,2.959e-5,3.013e4,7265.707,14.81,0.064,180.397,156.178,1.851,0.135,6.495e6,2843.665,6.859,0.452,0.458,0.323,0.045,0.083,0.341,0.631,2.385e-4,0,0,0,0,3.677e-4,0.006,13.081,134.391,89.915,-0.005,1.984,33.825,866.549,351.797,0.05,0.061
0.681,16.174,51.779,84.593,51.779,84.593,-0.004,-1.927e-7,0.004,-179.997,0.023,0.038,32.32,106.764,9.791,1.996,0,1.087,1.709e-4,3.006e4,7196.464,14.772,0.064,180.963,156.015,1.907,0.147,7.071e6,2845.083,8.108,0.452,0.457,0.323,0.045,0.084,0.295,0.562,-4.184e-4,0,0,0,0,5.19e-4,0.006,13.081,134.391,89.867,-0.005,1.948,33.81,866.4,351.788,0.05,0.062
0.731,18.869,56.015,84.813,56.015,84.813,-0.005,-3.409e-7,0.005,-179.996,0.019,0.142,32.32,106.764,9.791,1.696,0,1.343,-3.03e-5,2.999e4,7127.221,14.734,0.064,181.588,155.851,1.967,0.159,7.648e6,2846.498,9.462,0.452,0.456,0.323,0.045,0.084,0.247,0.485,-1.227e-4,0,0,0,0,6.776e-4,0.007,13.081,134.391,89.807,-0.004,1.867,33.795,866.239,351.779,0.05,0.062
0.781,21.776,60.262,85.027,60.262,85.028,-0.006,-5.518e-7,0.006,-179.995,0.009,0.261,32.32,106.764,9.791,1.499,0,1.599,2.981e-4,2.992e4,7057.918,14.695,0.064,182.02,155.687,2.013,0.171,8.226e6,2847.844,10.937,0.453,0.456,0.323,0.045,0.084,0.216,0.433,-4.598e-4,0,0,0,0,8.294e-4,0.007,13.081,134.391,89.733,-0.003,1.866,33.778,866.065,351.768,0.05,0.063
0.831,24.895,64.519,85.229,64.519,85.23,-0.006,-8.312e-7,0.006,-179.992,0.008,0.4,32.32,106.764,9.791,1.358,0,1.873,-4.637e-5,2.985e4,6988.575,14.657,0.064,182.341,155.521,2.05,0.184,8.806e6,2848.906,12.53,0.453,0.455,0.323,0.045,0.085,0.194,0.397,3.724e-5,0,0,0,0,9.937e-4,0.008,13.081,134.391,89.646,-0.003,1.92,33.76,865.878,351.757,0.05,0.063
0.881,28.228,68.787,85.427,68.787,85.429,-0.005,-1.193e-6,0.005,-179.986,0.032,0.583,32.32,106.764,9.791,1.108,0,2.152,-2.096e-4,2.978e4,6919.233,14.618,0.064,182.905,155.355,2.106,0.196,9.387e6,2849.939,14.224,0.453,0.455,0.323,0.045,0.085,0.156,0.328,2.363e-5,0,0,0,0,0.001,0.008,13.081,134.391,89.546,-0.002,1.844,33.74,865.678,351.746,0.05,0.064
0.931,31.774,73.064,85.622,73.064,85.625,-0.003,-1.61e-6,0.003,-179.963,0.066,0.787,32.32,106.764,9.791,0.903,0,2.397,-5.186e-4,2.971e4,6849.867,14.579,0.064,183.386,155.187,2.156,0.208,9.969e6,2850.973,16.039,0.454,0.455,0.323,0.045,0.086,0.126,0.27,-3.567e-4,0,0,0,0,0.001,0.009,13.081,134.391,89.432,5.447e-5,1.81,33.72,865.466,351.733,0.05,0.065
0.981,35.534,77.35,85.813,77.351,85.819,0.002,-2.011e-6,0.002,-0.062,0.111,0.999,32.32,106.764,9.791,0.811,3.195e-7,2.643,-3.342e-4,2.964e4,6780.44,14.54,0.064,183.623,155.019,2.187,0.22,1.055e7,2852.027,17.982,0.454,0.455,0.322,0.046,0.086,0.113,0.245,3.744e-4,0,0,0,0,0.001,0.01,13.081,134.391,89.306,0.001,1.921,33.698,865.241,351.72,0.05,0.065
1.031,39.509,81.647,86.001,81.647,86.01,0.009,-2.304e-6,0.009,-0.015,0.167,1.231,32.32,106.764,9.791,0.733,4.167e-7,2.898,-4.356e-4,2.957e4,6711.012,14.5,0.064,183.83,154.85,2.215,0.232,1.114e7,2853.087,20.045,0.455,0.455,0.322,0.046,0.086,0.101,0.223,4.805e-5,0,0,0,0,0.001,0.01,13.081,134.391,89.167,0.002,2.065,33.675,865.003,351.706,0.05,0.066
1.081,43.699,85.952,86.185,85.953,86.198,0.019,-2.394e-6,0.019,-0.007,0.235,1.507,32.32,106.764,9.791,0.575,5.368e-7,3.144,-1.815e-4,2.95e4,6641.585,14.461,0.063,184.227,154.681,2.259,0.244,1.172e7,2854.148,22.219,0.455,0.455,0.322,0.046,0.087,0.079,0.176,-8.064e-5,0,0,0,0,0.002,0.011,13.081,134.391,89.016,0.003,2.104,33.651,864.752,351.691,0.05,0.067
1.131,48.105,90.268,86.38,90.268,86.399,0.032,-2.216e-6,0.032,-0.004,0.318,1.819,32.32,106.764,9.791,0.375,0,3.337,-1.938e-4,2.943e4,6572.037,14.421,0.063,184.732,154.51,2.31,0.257,1.231e7,2855.659,24.513,0.456,0.456,0.322,0.046,0.088,0.051,0.116,-8.024e-5,0,0,0,0,0.002,0.011,13.081,134.391,88.854,0.002,2.079,33.625,864.488,351.676,0.05,0.067
1.181,52.726,94.594,86.589,94.595,86.615,0.051,-1.758e-6,0.051,-0.002,0.417,2.152,32.32,106.764,9.791,0.188,0,3.461,-3.905e-4,2.936e4,6502.482,14.381,0.063,185.22,154.338,2.361,0.269,1.29e7,2857.727,26.935,0.456,0.456,0.322,0.046,0.088,0.025,0.057,4.693e-4,0,0,0,0,0.002,0.012,13.081,134.391,88.684,0.002,2.066,33.598,864.211,351.659,0.05,0.068
1.231,57.564,98.93,86.793,98.931,86.829,0.074,-1.027e-6,0.074,-7.901e-4,0.534,2.503,32.32,106.764,9.791,0.007,3.864e-7,-3.508,-0.021,2.929e4,6432.927,14.341,0.063,185.704,154.166,2.411,0.281,1.349e7,2859.797,29.486,0.457,0.457,0.321,0.046,0.089,9.518e-4,0.004,4.783e-4,0,0,0,0,-0.001,0.012,13.081,134.391,88.509,0.002,2.028,33.57,863.921,351.642,0.05,0.069
1.281,62.619,103.275,86.973,103.278,87.02,0.104,1.632e-8,0.104,8.951e-6,0.668,2.86,32.32,106.764,9.791,0.186,-1.251e-6,-3.445,2.31e-4,2.922e4,6363.348,14.301,0.063,185.299,153.992,2.393,0.294,1.408e7,2861.328,32.17,0.457,0.457,0.321,0.047,0.089,0.025,0.061,4.163e-4,0,0,0,0,-0.001,0.013,13.081,134.391,88.335,0.002,1.998,33.541,863.619,351.625,0.05,0.069
1.331,67.892,107.626,87.07,107.629,87.129,0.142,1.415e-6,0.142,5.728e-4,0.819,3.185,32.32,106.764,9.791,0.275,-1.078e-6,-3.287,-2.882e-4,2.916e4,6293.752,14.26,0.063,185.121,153.818,2.393,0.306,1.467e7,2860.527,34.982,0.458,0.458,0.321,0.047,0.09,0.037,0.09,-4.213e-4,0,0,0,0,-0.001,0.013,13.081,134.391,88.166,0.001,2.108,33.51,863.303,351.606,0.05,0.07
1.381,73.382,111.981,87.152,111.985,87.224,0.187,3.188e-6,0.187,9.787e-4,0.987,3.529,32.32,106.764,9.791,0.437,0,-3.071,3.989e-4,2.909e4,6224.157,14.22,0.063,184.774,153.643,2.38,0.319,1.526e7,2859.455,37.925,0.458,0.459,0.321,0.047,0.091,0.06,0.143,-7.175e-5,0,0,0,0,-8.869e-4,0.014,13.081,134.391,88.007,0.002,2.055,33.478,862.974,351.587,0.05,0.07
1.431,79.09,116.339,87.229,116.345,87.314,0.24,5.399e-6,0.24,0.001,1.171,3.846,32.32,106.764,9.791,0.57,-1.967e-6,-2.67,0.001,2.902e4,6154.59,14.179,0.063,184.503,153.467,2.373,0.331,1.585e7,2858.357,41,0.459,0.46,0.321,0.047,0.091,0.079,0.187,1.421e-4,0,0,0,0,-6.211e-4,0.014,13.081,134.391,87.863,0.002,2.009,33.445,862.632,351.567,0.05,0.071
1.481,85.016,120.7,87.279,120.708,87.376,0.304,8.132e-6,0.304,0.002,1.37,4.107,32.32,106.764,9.791,0.64,0,-2.187,1.317e-4,2.895e4,6085.123,14.138,0.063,184.384,153.291,2.377,0.343,1.644e7,2856.559,44.198,0.46,0.46,0.32,0.047,0.092,0.089,0.211,-2.584e-4,0,0,0,0,-3.869e-4,0.015,13.081,134.391,87.741,0.002,2.039,33.411,862.277,351.546,0.05,0.072
1.531,91.16,125.063,87.316,125.073,87.422,0.378,1.15e-5,0.378,0.002,1.581,4.307,32.32,106.764,9.791,0.668,0,-1.609,0.001,2.888e4,6015.656,14.097,0.063,184.366,153.114,2.389,0.356,1.703e7,2854.45,47.518,0.461,0.461,0.32,0.048,0.093,0.093,0.222,4.351e-4,0,0,0,0,-1.951e-4,0.015,13.081,134.391,87.646,0.003,2.099,33.375,861.909,351.524,0.05,0.072
1.581,97.522,129.428,87.35,129.441,87.465,0.462,1.569e-5,0.462,0.002,1.8,4.474,32.32,106.764,9.791,0.727,0,-0.97,-2.481e-5,2.881e4,5946.19,14.056,0.063,184.279,152.935,2.396,0.368,1.762e7,2852.341,50.971,0.461,0.462,0.32,0.048,0.094,0.101,0.242,5.167e-5,0,0,0,0,-6.616e-5,0.016,13.081,134.391,87.582,0.003,2.021,33.338,861.528,351.502,0.05,0.073
1.631,104.103,133.795,87.386,133.81,87.505,0.558,2.089e-5,0.558,0.002,2.027,4.548,32.32,106.764,9.791,0.719,0,-0.199,2.117e-4,2.874e4,5876.871,14.014,0.063,184.348,152.757,2.415,0.381,1.821e7,2850.308,54.541,0.462,0.463,0.319,0.048,0.095,0.1,0.242,-3.043e-4,0,0,0,0,-2.617e-6,0.016,13.081,134.391,87.552,0.003,2.01,33.3,861.134,351.479,0.05,0.074
1.681,110.902,138.164,87.426,138.182,87.544,0.665,2.718e-5,0.665,0.002,2.254,4.534,32.32,106.764,9.791,0.672,0,0.552,-0.001,2.867e4,5807.568,13.973,0.062,184.509,152.577,2.441,0.393,1.88e7,2848.383,58.232,0.463,0.463,0.319,0.048,0.095,0.093,0.228,5.076e-9,0,0,0,0,1.884e-5,0.017,13.081,134.391,87.561,0.003,2.009,33.26,860.727,351.455,0.05,0.074
1.731,117.919,142.534,87.467,142.556,87.578,0.783,3.463e-5,0.783,0.003,2.478,4.422,32.32,106.764,9.791,0.582,-5.836e-7,1.314,-0.002,2.86e4,5738.265,13.931,0.062,184.772,152.397,2.475,0.406,1.939e7,2846.459,62.044,0.464,0.464,0.319,0.049,0.096,0.081,0.2,-3.923e-4,0,0,0,0,1.002e-4,0.018,13.081,134.391,87.608,0.003,2.025,33.22,860.307,351.43,0.05,0.075
1.781,125.155,146.906,87.494,146.931,87.596,0.913,4.327e-5,0.913,0.003,2.695,4.225,32.32,106.764,9.791,0.466,-8.117e-7,1.974,-9.004e-4,2.853e4,5669.097,13.889,0.062,185.103,152.216,2.514,0.418,1.998e7,2844.213,65.983,0.465,0.465,0.318,0.049,0.097,0.064,0.161,2.603e-4,0,0,0,0,2.128e-4,0.018,13.081,134.391,87.691,0.003,2.034,33.178,859.873,351.405,0.05,0.076
1.831,132.61,151.277,87.463,151.305,87.552,1.053,5.304e-5,1.053,0.003,2.899,3.96,32.32,106.764,9.791,0.344,6.946e-7,2.531,3.021e-4,2.846e4,5600.04,13.847,0.062,185.453,152.035,2.555,0.431,2.057e7,2840.34,70.052,0.465,0.466,0.318,0.049,0.098,0.047,0.12,1.226e-4,0,0,0,0,3.3e-4,0.019,13.081,134.391,87.804,0.003,1.994,33.134,859.427,351.378,0.05,0.076
1.881,140.283,155.645,87.42,155.676,87.495,1.202,6.387e-5,1.202,0.003,3.089,3.628,32.32,106.764,9.791,0.201,3.919e-6,2.934,4.453e-4,2.839e4,5530.983,13.805,0.062,185.862,151.853,2.6,0.443,2.116e7,2836.243,74.254,0.466,0.466,0.318,0.049,0.099,0.027,0.07,2.214e-4,0,0,0,0,4.189e-4,0.019,13.081,134.391,87.942,0.003,1.961,33.09,858.967,351.351,0.05,0.077
1.931,148.174,160.011,87.37,160.045,87.43,1.361,7.571e-5,1.361,0.003,3.261,3.255,32.32,106.764,9.791,0.05,-7.801e-7,3.125,0.003,2.832e4,5462.016,13.763,0.062,186.295,151.67,2.647,0.456,2.175e7,2832.082,78.592,0.467,0.467,0.317,0.05,0.1,0.007,0.018,1.288e-4,0,0,0,0,4.494e-4,0.02,13.081,134.391,88.094,0.004,1.925,33.044,858.495,351.324,0.05,0.077
1.981,156.284,164.371,87.227,164.406,87.273,1.528,8.878e-5,1.528,0.003,3.413,2.848,32.32,106.764,9.791,0.114,-5.813e-7,-3.078,0.002,2.825e4,5393.445,13.72,0.062,186.201,151.487,2.654,0.468,2.233e7,2825.493,83.07,0.468,0.468,0.317,0.05,0.101,0.015,0.041,2.679e-4,0,0,0,0,-4.133e-4,0.02,13.081,134.391,88.25,0.005,1.937,32.997,858.009,351.295,0.05,0.078
2.031,164.611,168.72,87.033,168.757,87.067,1.702,1.032e-4,1.702,0.003,3.545,2.452,32.32,106.764,9.791,0.263,-4.548e-6,-2.725,0.003,2.819e4,5324.874,13.678,0.062,185.899,151.303,2.645,0.481,2.292e7,2817.666,87.685,0.469,0.469,0.317,0.05,0.102,0.036,0.096,4.692e-4,0,0,0,0,-3.074e-4,0.021,13.081,134.391,88.397,0.005,1.958,32.949,857.51,351.266,0.05,0.079
2.081,173.155,173.06,86.83,173.098,86.856,1.882,1.192e-4,1.882,0.004,3.659,2.099,32.32,106.764,9.791,0.395,0,-2.102,-0.001,2.812e4,5256.303,13.635,0.062,185.647,151.119,2.64,0.493,2.35e7,2809.838,92.434,0.47,0.47,0.316,0.051,0.103,0.055,0.144,-3.411e-4,0,0,0,0,-1.738e-4,0.021,13.081,134.391,88.518,0.008,2.016,32.899,856.999,351.236,0.05,0.08
2.131,181.917,177.387,86.567,177.426,86.588,2.068,1.369e-4,2.068,0.004,3.757,1.888,32.32,106.764,9.791,0.436,-1.38e-6,-1.21,0.002,2.805e4,5188.401,13.593,0.062,185.618,150.935,2.651,0.505,2.408e7,2800.62,97.286,0.471,0.471,0.316,0.051,0.104,0.06,0.16,-1.947e-4,0,0,0,0,-5.486e-5,0.022,13.081,134.391,88.602,0.009,1.928,32.848,856.474,351.205,0.05,0.08
2.181,190.894,181.696,86.208,181.736,86.227,2.258,1.565e-4,2.258,0.004,3.848,1.77,32.32,106.764,9.791,0.455,0,-0.288,-1.105e-4,2.798e4,5120.621,13.55,0.062,185.646,150.751,2.668,0.518,2.465e7,2788.946,102.251,0.472,0.472,0.315,0.051,0.105,0.063,0.169,-4.961e-4,0,0,0,0,-2.961e-6,0.022,13.081,134.391,88.639,0.009,1.913,32.796,855.936,351.173,0.05,0.081
2.231,200.086,185.986,85.84,186.028,85.858,2.452,1.778e-4,2.452,0.004,3.935,1.748,32.32,106.764,9.791,0.463,1.05e-6,0.778,1.357e-4,2.791e4,5052.842,13.508,0.062,185.706,150.566,2.686,0.53,2.523e7,2777.224,107.333,0.473,0.474,0.315,0.052,0.107,0.064,0.173,-1.699e-4,0,0,0,0,2.06e-5,0.023,13.081,134.391,88.626,0.006,2.03,32.743,855.386,351.141,0.05,0.082
2.281,209.492,190.257,85.437,190.3,85.459,2.651,2.006e-4,2.651,0.004,4.026,1.938,32.32,106.764,9.791,0.366,-1.641e-6,1.833,0.002,2.785e4,4985.664,13.465,0.062,186.021,150.381,2.724,0.542,2.58e7,2764.851,112.49,0.474,0.474,0.315,0.052,0.108,0.051,0.139,3.367e-4,0,0,0,0,1.093e-4,0.023,13.081,134.391,88.56,0.004,1.972,32.688,854.823,351.108,0.05,0.083
2.331,219.111,194.501,84.895,194.545,84.926,2.855,2.245e-4,2.855,0.005,4.13,2.263,32.32,106.764,9.791,0.224,3.85e-6,2.554,0.005,2.778e4,4919.031,13.423,0.061,186.453,150.198,2.772,0.554,2.637e7,2748.93,117.744,0.475,0.475,0.314,0.052,0.109,0.031,0.086,3.281e-4,0,0,0,0,2.032e-4,0.024,13.081,134.391,88.449,0.001,1.893,32.632,854.247,351.074,0.05,0.083
2.381,228.941,198.717,84.325,198.763,84.367,3.065,2.49e-4,3.065,0.005,4.253,2.647,32.32,106.764,9.791,0.082,-1.037e-6,2.973,0.012,2.771e4,4852.398,13.38,0.061,186.896,150.013,2.82,0.566,2.693e7,2732.476,123.113,0.477,0.477,0.314,0.053,0.11,0.011,0.031,-2.133e-4,0,0,0,0,2.638e-4,0.024,13.081,134.391,88.309,-0.003,1.895,32.575,853.658,351.039,0.05,0.084
2.431,238.982,202.904,83.744,202.952,83.8,3.281,2.733e-4,3.281,0.005,4.395,3.063,32.32,106.764,9.791,0.061,4.965e-6,-2.999,0.011,2.765e4,4786,13.338,0.061,187.043,149.828,2.845,0.578,2.748e7,2715.993,128.595,0.478,0.478,0.313,0.053,0.111,0.008,0.024,-4.168e-4,0,0,0,0,-2.575e-4,0.025,13.081,134.391,88.158,-0.007,1.909,32.517,853.056,351.004,0.05,0.085
2.481,249.231,207.059,83.103,207.109,83.175,3.505,2.965e-4,3.505,0.005,4.558,3.461,32.32,106.764,9.791,0.194,-1.972e-6,-2.605,0.004,2.758e4,4720.797,13.296,0.061,186.812,149.646,2.841,0.59,2.804e7,2698.189,134.182,0.479,0.479,0.313,0.053,0.113,0.027,0.076,-1.52e-4,0,0,0,0,-1.866e-4,0.026,13.081,134.391,88.016,-0.01,1.908,32.457,852.443,350.968,0.05,0.085
2.531,259.687,211.181,82.43,211.234,82.518,3.737,3.175e-4,3.737,0.005,4.74,3.799,32.32,106.764,9.791,0.307,-2.836e-6,-1.81,0.003,2.752e4,4655.594,13.253,0.061,186.634,149.463,2.842,0.602,2.858e7,2679.663,139.865,0.48,0.48,0.312,0.054,0.114,0.043,0.121,-3.664e-4,0,0,0,0,-8.659e-5,0.026,13.081,134.391,87.904,-0.013,1.848,32.397,851.816,350.931,0.05,0.086
2.581,270.348,215.268,81.757,215.325,81.854,3.979,3.354e-4,3.979,0.005,4.935,3.978,32.32,106.764,9.791,0.362,-3.494e-6,-0.654,0.004,2.745e4,4590.391,13.211,0.061,186.606,149.279,2.854,0.614,2.913e7,2661.137,145.626,0.481,0.481,0.312,0.054,0.115,0.051,0.144,2.461e-4,0,0,0,0,-1.086e-5,0.027,13.081,134.391,87.842,-0.015,1.809,32.335,851.178,350.894,0.05,0.086
2.631,281.213,219.323,81.083,219.383,81.179,4.23,3.495e-4,4.23,0.005,5.133,3.94,32.32,106.764,9.791,0.339,-4.108e-7,0.599,0.001,2.739e4,4526.398,13.169,0.061,186.768,149.097,2.88,0.625,2.966e7,2642.627,151.449,0.482,0.482,0.311,0.055,0.116,0.047,0.137,-1.246e-4,0,0,0,0,8.8e-6,0.027,13.081,134.391,87.841,-0.013,1.832,32.272,850.527,350.855,0.05,0.087
2.681,292.279,223.343,80.414,223.407,80.498,4.492,3.605e-4,4.492,0.005,5.324,3.667,32.32,106.764,9.791,0.233,0,1.686,0.003,2.732e4,4462.699,13.127,0.061,187.138,148.915,2.922,0.637,3.02e7,2624.146,157.335,0.484,0.484,0.311,0.055,0.118,0.032,0.095,4.024e-4,0,0,0,0,6.717e-5,0.028,13.081,134.391,87.901,-0.009,1.955,32.207,849.864,350.817,0.05,0.088
2.731,303.546,227.33,79.741,227.397,79.81,4.763,3.697e-4,4.763,0.004,5.497,3.304,32.32,106.764,9.791,0.122,-2.393e-6,2.319,-0.004,2.726e4,4399,13.086,0.061,187.528,148.733,2.966,0.648,3.072e7,2605.667,163.299,0.485,0.485,0.31,0.055,0.119,0.017,0.05,-4.87e-4,0,0,0,0,1.226e-4,0.028,13.081,134.391,88.003,-0.005,1.952,32.142,849.19,350.777,0.05,0.088
2.781,315.012,231.283,79.057,231.352,79.109,5.041,3.783e-4,5.041,0.004,5.651,2.847,32.32,106.764,9.791,0.016,-2.657e-6,-2.589,-0.005,2.72e4,4336.053,13.044,0.061,187.91,148.552,3.009,0.66,3.124e7,2587.046,169.333,0.486,0.486,0.31,0.056,0.12,0.002,0.007,4.963e-4,0,0,0,0,-1.477e-4,0.029,13.081,134.391,88.129,-3.162e-4,1.978,32.062,848.379,350.729,0.05,0.089
2.831,326.674,235.2,78.331,235.271,78.368,5.327,3.88e-4,5.327,0.004,5.78,2.406,32.32,106.764,9.79,0.141,-9.056e-6,-2.197,0.004,2.714e4,4273.904,13.003,0.061,187.714,148.372,3.008,0.671,3.175e7,2567.528,175.415,0.487,0.487,0.309,0.056,0.122,0.02,0.059,3.577e-4,0,0,0,0,-1.028e-4,0.029,13.081,134.391,88.251,0.008,1.992,31.953,847.294,350.663,0.05,0.09
2.881,338.531,239.08,77.589,239.152,77.616,5.619,4.007e-4,5.619,0.004,5.891,2.06,32.32,106.764,9.79,0.23,-5.268e-6,-1.378,0.003,2.707e4,4211.756,12.961,0.061,187.612,148.192,3.014,0.682,3.225e7,2547.85,181.563,0.488,0.489,0.309,0.057,0.123,0.032,0.097,1.245e-4,0,0,0,0,-3.912e-5,0.029,13.081,134.391,88.342,0.016,2,31.843,846.19,350.596,0.05,0.091
2.931,350.581,242.922,76.836,242.996,76.859,5.916,4.182e-4,5.916,0.004,5.987,1.878,32.32,106.764,9.79,0.272,-2.209e-6,-0.183,0.003,2.701e4,4149.797,12.92,0.061,187.63,148.011,3.029,0.693,3.275e7,2528.191,187.764,0.49,0.49,0.308,0.057,0.124,0.038,0.116,4.734e-4,0,0,0,0,-6.723e-7,0.03,13.081,134.391,88.381,0.019,2.04,31.73,845.069,350.528,0.05,0.091
2.981,362.822,246.729,76.118,246.804,76.144,6.218,4.412e-4,6.218,0.004,6.082,1.996,32.32,106.764,9.79,0.213,1.621e-6,1.074,1.318e-4,2.695e4,4089.166,12.879,0.06,187.901,147.834,3.063,0.704,3.324e7,2509.898,193.983,0.491,0.491,0.308,0.057,0.126,0.03,0.092,5.878e-5,0,0,0,0,2.233e-5,0.03,13.081,134.391,88.358,0.019,1.913,31.616,843.929,350.458,0.05,0.092
3.031,375.253,250.502,75.423,250.578,75.456,6.524,4.697e-4,6.524,0.004,6.188,2.244,32.32,106.764,9.79,0.132,-2.03e-6,1.857,8.436e-4,2.689e4,4028.535,12.838,0.06,188.229,147.655,3.102,0.715,3.373e7,2492.464,200.265,0.492,0.492,0.307,0.058,0.127,0.018,0.058,1.706e-4,0,0,0,0,6.479e-5,0.031,13.081,134.391,88.281,0.016,1.899,31.5,842.772,350.388,0.05,0.093
3.081,387.871,254.239,74.719,254.317,74.763,6.837,5.031e-4,6.837,0.004,6.308,2.578,32.32,106.764,9.79,0.039,-1.53e-6,2.353,0.003,2.683e4,3967.904,12.797,0.06,188.591,147.476,3.143,0.726,3.421e7,2475.031,206.611,0.494,0.494,0.307,0.058,0.128,0.005,0.018,-3.991e-4,0,0,0,0,1.009e-4,0.031,13.081,134.391,88.173,0.01,1.973,31.383,841.598,350.317,0.05,0.094
3.131,400.676,257.944,74.055,258.024,74.114,7.155,5.394e-4,7.155,0.004,6.446,2.963,32.32,106.764,9.79,0.066,5.281e-6,-2.27,-0.008,2.677e4,3908.212,12.756,0.06,188.653,147.299,3.161,0.737,3.468e7,2458.972,213.023,0.495,0.495,0.306,0.059,0.13,0.009,0.03,-1.523e-4,0,0,0,0,-9.127e-5,0.032,13.081,134.391,88.054,-0.001,2.009,31.263,840.406,350.244,0.05,0.094
3.181,413.665,261.621,73.504,261.704,73.579,7.482,5.758e-4,7.482,0.004,6.603,3.324,32.32,106.764,9.79,0.165,-5.622e-6,-1.615,0.003,2.671e4,3848.808,12.716,0.06,188.534,147.121,3.166,0.748,3.515e7,2446.107,219.506,0.496,0.496,0.306,0.059,0.131,0.023,0.074,3.518e-5,0,0,0,0,-4.492e-5,0.032,13.081,134.391,87.955,-0.009,1.973,31.142,839.197,350.171,0.05,0.095
3.231,426.837,265.27,72.96,265.357,73.043,7.816,6.097e-4,7.816,0.004,6.775,3.482,32.32,106.764,9.79,0.202,3.671e-7,-0.446,-0.006,2.665e4,3789.404,12.675,0.06,188.574,146.943,3.183,0.758,3.561e7,2433.372,226.048,0.498,0.498,0.305,0.059,0.133,0.029,0.091,1.796e-4,0,0,0,0,-3.337e-6,0.033,13.081,134.391,87.903,-0.013,1.99,31.019,837.971,350.097,0.05,0.095
3.281,440.191,268.866,71.876,268.956,71.956,8.159,6.397e-4,8.159,0.004,6.947,3.377,32.32,106.764,9.79,0.174,-2.756e-6,0.719,0.004,2.659e4,3733.072,12.636,0.06,188.778,146.774,3.211,0.769,3.607e7,2406.335,232.583,0.499,0.499,0.305,0.06,0.134,0.025,0.079,-3.212e-4,0,0,0,0,8.438e-6,0.033,13.081,134.391,87.911,-0.012,2.04,30.895,836.728,350.021,0.05,0.096
3.331,453.717,272.204,66.734,272.297,66.801,8.51,6.663e-4,8.51,0.004,7.101,2.98,32.32,106.764,9.79,0.12,-8.162e-6,1.632,5.441e-4,2.654e4,3680.57,12.6,0.06,189.041,146.615,3.243,0.778,3.649e7,2271.396,238.715,0.5,0.5,0.304,0.06,0.135,0.017,0.055,1.551e-4,0,0,0,0,4.234e-5,0.034,13.081,134.391,87.973,-0.004,1.966,30.769,835.469,349.945,0.05,0.097
3.381,467.404,275.244,60.757,275.339,60.803,8.869,6.926e-4,8.869,0.004,7.23,2.351,32.32,106.764,9.79,0.003,3.475e-6,2.141,0.081,2.649e4,3628.069,12.563,0.06,189.456,146.456,3.287,0.787,3.687e7,2114.21,244.362,0.501,0.501,0.304,0.061,0.137,4.123e-4,0.002,3.006e-5,0,0,0,0,7.132e-5,0.034,13.081,134.391,88.072,0.008,2.03,30.641,834.196,349.867,0.05,0.097
3.431,481.234,277.982,54.733,278.079,54.762,9.233,7.219e-4,9.233,0.004,7.327,1.783,32.32,106.764,9.79,0.093,-4.658e-6,-1.711,0.003,2.644e4,3577.626,12.528,0.06,189.334,146.302,3.29,0.795,3.721e7,1956.108,249.497,0.502,0.502,0.304,0.061,0.138,0.013,0.043,4.604e-4,0,0,0,0,-4.463e-5,0.034,13.081,134.391,88.172,0.024,2.015,30.512,832.908,349.789,0.05,0.098
3.481,495.19,280.231,44.937,280.329,44.955,9.601,7.588e-4,9.601,0.005,7.394,1.254,32.32,106.764,9.79,0.146,8.752e-7,-0.903,-0.004,2.641e4,3544.738,12.505,0.06,189.288,146.202,3.294,0.802,3.748e7,1699.231,253.71,0.503,0.503,0.303,0.061,0.139,0.021,0.069,-4.865e-4,0,0,0,0,-1.223e-5,0.035,13.081,134.391,88.239,0.04,1.948,30.382,831.609,349.71,0.05,0.099
3.531,509.242,281.864,32.633,281.962,32.644,9.972,8.065e-4,9.972,0.005,7.436,0.858,32.32,106.764,9.79,0.146,-2.664e-6,0.199,2.392e-4,2.637e4,3511.849,12.482,0.06,189.355,146.101,3.307,0.807,3.767e7,1375.751,256.707,0.504,0.504,0.303,0.061,0.139,0.021,0.069,-2.883e-4,0,0,0,0,5.86e-7,0.035,13.081,134.391,88.255,0.043,1.875,30.251,830.302,349.631,0.05,0.1
3.581,523.361,282.882,20.341,282.98,20.349,10.344,8.647e-4,10.344,0.005,7.463,0.577,32.32,106.764,9.79,0.117,1.824e-6,1.113,0.01,2.634e4,3478.96,12.459,0.06,189.47,146,3.323,0.81,3.777e7,1052.27,258.476,0.504,0.504,0.303,0.062,0.14,0.017,0.055,3.238e-4,0,0,0,0,1.825e-5,0.035,13.081,134.391,88.22,0.028,1.908,30.119,828.987,349.551,0.05,0.101
3.631,537.517,283.372,9.796,283.471,9.806,10.717,9.297e-4,10.717,0.005,7.48,0.452,32.32,106.764,9.79,0.053,4.993e-6,1.802,0.014,2.632e4,3460.689,12.446,0.06,189.655,145.944,3.342,0.811,3.781e7,774.886,259.179,0.504,0.504,0.303,0.062,0.14,0.008,0.025,3.424e-5,0,0,0,0,4.767e-5,0.035,13.081,134.391,88.143,0.006,1.968,29.987,827.67,349.471,0.05,0.101
3.681,551.69,283.553,3.611,283.652,3.645,11.092,9.958e-4,11.092,0.005,7.499,0.498,32.32,106.764,9.79,0.028,5.168e-6,-1.877,0.024,2.631e4,3447.421,12.437,0.06,189.73,145.903,3.35,0.812,3.78e7,612.108,259.26,0.505,0.505,0.303,0.062,0.14,0.004,0.014,-1.338e-4,0,0,0,0,-5.164e-5,0.035,13.081,134.391,88.048,-0.014,2.016,29.855,826.351,349.391,0.05,0.102
3.731,565.865,283.435,-2.353,283.535,2.414,11.467,0.001,11.467,0.005,7.52,0.539,32.32,106.764,9.79,0.112,-3.464e-6,-1.391,0.013,2.63e4,3434.153,12.427,0.06,189.514,145.862,3.337,0.812,3.775e7,454.731,258.742,0.505,0.505,0.303,0.062,0.14,0.016,0.053,4.902e-4,0,0,0,0,-2.837e-5,0.035,13.081,134.391,87.964,-0.022,1.992,29.723,825.031,349.311,0.05,0.103
3.781,580.027,283.035,-7.979,283.136,7.993,11.844,0.001,11.844,0.005,7.541,0.479,32.32,106.764,9.79,0.161,1.824e-6,-0.342,0.003,2.629e4,3424.385,12.42,0.06,189.374,145.832,3.329,0.811,3.767e7,305.73,257.655,0.504,0.504,0.303,0.062,0.14,0.023,0.077,2.955e-4,0,0,0,0,-1.719e-6,0.035,13.081,134.391,87.92,-0.018,1.927,29.591,823.713,349.231,0.05,0.103
3.831,594.165,282.498,-10.713,282.599,10.718,12.221,0.001,12.221,0.005,7.56,0.329,32.32,106.764,9.79,0.144,-2.161e-6,0.834,0.005,2.628e4,3419.757,12.417,0.06,189.4,145.818,3.332,0.81,3.757e7,232.404,256.285,0.504,0.504,0.303,0.062,0.14,0.021,0.068,-1.467e-4,0,0,0,0,1.027e-5,0.035,13.081,134.391,87.934,-0.008,1.914,29.459,822.397,349.151,0.05,0.104
3.881,608.274,281.859,-12.747,281.961,12.747,12.6,0.001,12.6,0.006,7.568,0.048,32.32,106.764,9.79,0.068,1.648e-6,1.624,0.002,2.628e4,3415.13,12.414,0.06,189.57,145.803,3.346,0.808,3.745e7,177.156,254.71,0.504,0.504,0.303,0.062,0.14,0.01,0.033,-3.48e-4,0,0,0,0,3.913e-5,0.035,13.081,134.391,87.999,0.003,1.947,29.327,821.084,349.071,0.05,0.105
3.931,622.348,281.119,-14.77,281.22,14.773,12.978,0.001,12.978,0.006,7.56,0.286,32.32,106.764,9.79,0.031,-1.591e-6,-1.752,0.009,2.627e4,3410.707,12.411,0.06,189.638,145.79,3.352,0.806,3.733e7,121.979,252.95,0.504,0.504,0.303,0.061,0.139,0.004,0.015,2.312e-4,0,0,0,0,-4.577e-5,0.035,13.081,134.391,88.088,0.014,1.99,29.196,819.774,348.992,0.05,0.105
3.981,636.384,280.313,-16.079,280.414,16.088,13.355,0.001,13.355,0.006,7.537,0.54,32.32,106.764,9.79,0.113,1.802e-6,-1.222,-0.005,2.627e4,3409.218,12.41,0.06,189.401,145.785,3.334,0.804,3.719e7,85.536,251.079,0.503,0.503,0.303,0.061,0.139,0.016,0.053,9.564e-5,0,0,0,0,-2.241e-5,0.035,13.081,134.391,88.166,0.023,2.007,29.065,818.468,348.912,0.05,0.106
4.031,650.379,279.469,-16.833,279.57,16.847,13.731,0.001,13.731,0.006,7.506,0.684,32.32,106.764,9.789,0.159,0,-0.244,-0.007,2.627e4,3407.729,12.409,0.06,189.252,145.78,3.323,0.802,3.705e7,63.696,249.146,0.503,0.503,0.303,0.061,0.139,0.023,0.075,3.612e-5,0,0,0,0,-8.983e-7,0.034,13.081,134.391,88.203,0.032,2.052,28.935,817.165,348.833,0.05,0.107
4.081,664.33,278.588,-17.59,278.688,17.601,14.106,0.001,14.106,0.006,7.471,0.63,32.32,106.764,9.789,0.131,-2.518e-6,0.864,-0.006,2.627e4,3406.241,12.407,0.06,189.292,145.776,3.327,0.799,3.69e7,41.855,247.127,0.503,0.503,0.303,0.061,0.138,0.019,0.061,-2.624e-4,0,0,0,0,1.133e-5,0.034,13.081,134.391,88.186,0.036,1.997,28.804,815.867,348.754,0.05,0.107
4.131,678.237,277.676,-18.212,277.775,18.217,14.479,0.002,14.479,0.006,7.443,0.427,32.32,106.764,9.789,0.045,-5.774e-6,1.471,-0.018,2.627e4,3405.591,12.407,0.06,189.479,145.774,3.341,0.797,3.675e7,23.631,245.049,0.502,0.502,0.303,0.061,0.138,0.006,0.021,-1.974e-4,0,0,0,0,3.306e-5,0.034,13.081,134.391,88.124,0.032,1.863,28.675,814.573,348.676,0.05,0.108
4.181,692.097,276.752,-18.443,276.851,18.443,14.85,0.002,14.85,0.006,7.428,0.183,32.32,106.764,9.789,0.056,7.255e-7,-1.427,-0.024,2.627e4,3405.293,12.407,0.06,189.417,145.773,3.336,0.794,3.66e7,15.708,242.975,0.502,0.502,0.304,0.061,0.138,0.008,0.026,-4.308e-4,0,0,0,0,-3.134e-5,0.034,13.081,134.391,88.047,0.018,1.725,28.546,813.283,348.597,0.05,0.109
4.231,705.911,275.817,-18.647,275.917,18.647,15.222,0.002,15.222,0.006,7.424,0.035,32.32,106.764,9.789,0.119,-2.732e-6,-0.77,-0.011,2.627e4,3404.995,12.407,0.06,189.222,145.772,3.322,0.792,3.644e7,8.419,240.907,0.502,0.502,0.304,0.061,0.137,0.017,0.056,3.528e-4,0,0,0,0,-9.185e-6,0.034,13.081,134.391,87.989,-0.002,1.671,28.417,811.997,348.519,0.05,0.11
4.264,714.934,275.2,-18.826,275.3,18.826,15.465,0.002,15.465,0.006,7.423,0.003,32.32,106.764,9.789,0.136,-1.829e-6,-0.205,-0.007,2.627e4,3404.8,12.406,0.06,189.157,145.771,3.317,0.79,3.634e7,2.387,239.549,0.502,0.502,0.304,0.061,0.137,0.019,0.064,-1.065e-5,0,0,0,0,-6.512e-7,0.034,13.081,134.391,87.973,-0.014,1.66,28.333,811.157,348.468,0.033,0.111
4.313,728.431,274.273,-18.838,274.373,18.838,15.829,0.002,15.829,0.007,7.423,0.04,32.32,106.764,9.789,0.122,-6.593e-7,0.666,-0.006,2.627e4,3404.8,12.406,0.06,189.159,145.771,3.317,0.788,3.619e7,0,237.511,0.501,0.501,0.304,0.061,0.137,0.017,0.057,-1.896e-4,0,0,0,0,6.958e-6,0.034,13.081,134.391,87.986,-0.024,1.636,28.207,809.901,348.392,0.049,0.112
4.363,742.121,273.333,-18.755,273.434,18.756,16.2,0.002,16.2,0.007,7.418,0.164,32.32,106.764,9.789,0.07,-1.072e-6,1.312,-0.017,2.627e4,3404.8,12.406,0.06,189.258,145.771,3.324,0.785,3.604e7,0,235.453,0.501,0.501,0.304,0.061,0.136,0.01,0.033,4.284e-4,0,0,0,0,2.715e-5,0.034,13.081,134.391,88.038,-0.022,1.615,28.079,808.627,348.315,0.05,0.113
4.413,755.764,272.397,-18.672,272.498,18.675,16.571,0.002,16.571,0.007,7.405,0.333,32.32,106.764,9.789,0.003,-9.212e-6,-1.538,-0.325,2.627e4,3404.8,12.406,0.06,189.397,145.771,3.335,0.783,3.588e7,0,233.419,0.501,0.501,0.304,0.06,0.136,3.641e-4,0.001,-3.937e-5,0,0,0,0,-3.757e-5,0.034,13.081,134.391,88.113,-0.013,1.589,27.952,807.357,348.238,0.05,0.114
4.463,769.361,271.466,-18.589,271.566,18.597,16.941,0.002,16.941,0.007,7.383,0.528,32.32,106.764,9.789,0.086,-5.375e-6,-1.243,-0.009,2.627e4,3404.8,12.406,0.06,189.15,145.771,3.316,0.78,3.573e7,0,231.419,0.5,0.5,0.304,0.06,0.136,0.012,0.041,-4.29e-4,0,0,0,0,-2.471e-5,0.033,13.081,134.391,88.186,0.003,1.638,27.825,806.091,348.161,0.05,0.115
4.513,782.911,270.538,-18.51,270.638,18.522,17.309,0.002,17.309,0.007,7.354,0.642,32.32,106.764,9.789,0.137,-1.272e-6,-0.522,-0.009,2.627e4,3404.8,12.406,0.06,188.989,145.771,3.304,0.778,3.558e7,0,229.438,0.5,0.5,0.304,0.06,0.135,0.019,0.064,4.593e-4,0,0,0,0,-4.392e-6,0.033,13.081,134.391,88.231,0.018,1.66,27.699,804.83,348.084,0.05,0.115
4.563,796.415,269.615,-18.435,269.714,18.447,17.676,0.002,17.676,0.007,7.32,0.682,32.32,106.764,9.789,0.156,-3.316e-6,0.464,-0.002,2.627e4,3404.8,12.406,0.06,188.91,145.771,3.298,0.775,3.543e7,0,227.477,0.5,0.5,0.305,0.06,0.135,0.022,0.072,-3.245e-4,0,0,0,0,3.494e-6,0.033,13.081,134.391,88.232,0.028,1.744,27.573,803.573,348.008,0.05,0.116
4.613,809.872,268.695,-18.362,268.794,18.372,18.041,0.002,18.041,0.007,7.287,0.601,32.32,106.764,9.789,0.122,-5.509e-6,1.376,-0.006,2.627e4,3404.8,12.406,0.06,188.963,145.771,3.302,0.773,3.528e7,0,225.523,0.499,0.499,0.305,0.06,0.135,0.017,0.057,3.89e-4,0,0,0,0,3.092e-5,0.033,13.081,134.391,88.184,0.026,1.805,27.447,802.321,347.932,0.05,0.117
4.663,823.284,267.778,-18.294,267.877,18.299,18.405,0.002,18.405,0.007,7.261,0.447,32.32,106.764,9.789,0.055,-5.627e-6,1.92,-0.008,2.627e4,3404.8,12.406,0.06,189.101,145.771,3.312,0.77,3.514e7,0,223.6,0.499,0.499,0.305,0.06,0.134,0.008,0.025,4.915e-4,0,0,0,0,6.057e-5,0.033,13.081,134.391,88.098,0.022,1.881,27.322,801.118,347.856,0.05,0.118
4.713,836.65,266.865,-18.227,266.964,18.229,18.767,0.002,18.767,0.007,7.243,0.272,32.32,106.764,9.789,0.024,-8.794e-7,-2.069,-0.026,2.627e4,3404.8,12.406,0.06,189.149,145.771,3.316,0.768,3.499e7,0,221.705,0.499,0.499,0.305,0.06,0.134,0.003,0.011,-3.374e-4,0,0,0,0,-7.082e-5,0.033,13.081,134.391,87.996,0.017,1.979,27.197,799.924,347.781,0.05,0.119
4.763,849.971,265.956,-18.164,266.054,18.164,19.129,0.002,19.129,0.007,7.235,0.047,32.32,106.764,9.789,0.123,-6.195e-6,-1.565,0.002,2.627e4,3404.8,12.406,0.06,188.865,145.771,3.294,0.765,3.485e7,0,219.83,0.498,0.498,0.305,0.06,0.134,0.017,0.058,2.755e-4,0,0,0,0,-4.079e-5,0.033,13.081,134.391,87.902,0.015,1.919,27.073,798.735,347.705,0.05,0.12
4.813,863.246,265.049,-18.097,265.148,18.097,19.491,0.003,19.491,0.007,7.236,0.047,32.32,106.764,9.789,0.166,-5.211e-7,-0.655,-4.321e-4,2.627e4,3404.8,12.406,0.06,188.725,145.771,3.284,0.763,3.47e7,0,217.977,0.498,0.498,0.305,0.06,0.133,0.024,0.077,-2.249e-4,0,0,0,0,-7.193e-6,0.033,13.081,134.391,87.846,0.014,1.953,26.949,797.549,347.63,0.05,0.121
4.863,876.476,264.146,-18.026,264.245,18.026,19.853,0.003,19.853,0.008,7.239,0.022,32.32,106.764,9.789,0.156,-3.834e-7,0.354,0.004,2.627e4,3404.8,12.406,0.06,188.719,145.771,3.283,0.76,3.456e7,0,216.132,0.498,0.498,0.305,0.06,0.133,0.022,0.073,4.03e-4,0,0,0,0,2.116e-6,0.033,13.081,134.391,87.84,0.016,2.001,26.826,796.367,347.555,0.05,0.122
4.913,889.66,263.246,-17.952,263.346,17.952,20.215,0.003,20.215,0.008,7.237,0.091,32.32,106.764,9.789,0.106,-8.357e-7,1.157,0.008,2.627e4,3404.8,12.406,0.06,188.816,145.771,3.291,0.758,3.441e7,0,214.296,0.498,0.498,0.305,0.059,0.133,0.015,0.049,4.026e-4,0,0,0,0,2.277e-5,0.032,13.081,134.391,87.88,0.019,2.022,26.703,795.19,347.481,0.05,0.122
4.963,902.8,262.351,-17.877,262.45,17.878,20.577,0.003,20.577,0.008,7.229,0.246,32.32,106.764,9.789,0.033,-3.126e-6,1.585,0.021,2.627e4,3404.8,12.406,0.06,188.97,145.771,3.302,0.756,3.427e7,0,212.477,0.497,0.497,0.306,0.059,0.132,0.005,0.015,7.949e-5,0,0,0,0,4.302e-5,0.032,13.081,134.391,87.952,0.023,2.007,26.58,794.016,347.407,0.05,0.123
5.013,915.896,261.459,-17.803,261.558,17.807,20.938,0.003,20.938,0.008,7.213,0.377,32.32,106.764,9.789,0.031,-1.099e-6,-1.564,0.024,2.627e4,3404.8,12.406,0.06,188.946,145.771,3.301,0.753,3.413e7,0,210.677,0.497,0.497,0.306,0.059,0.132,0.004,0.015,3.491e-4,0,0,0,0,-4.216e-5,0.032,13.081,134.391,88.033,0.026,1.915,26.458,792.847,347.333,0.05,0.124
5.063,928.946,260.57,-17.733,260.67,17.739,21.298,0.003,21.298,0.008,7.192,0.456,32.32,106.764,9.789,0.071,4.117e-6,-1.311,0.003,2.627e4,3404.8,12.406,0.06,188.812,145.771,3.29,0.751,3.399e7,0,208.893,0.497,0.497,0.306,0.059,0.132,0.01,0.033,-3.516e-4,0,0,0,0,-2.981e-5,0.032,13.081,134.391,88.106,0.029,1.754,26.337,791.681,347.259,0.05,0.125
5.113,941.953,259.685,-17.662,259.784,17.672,21.657,0.003,21.657,0.008,7.166,0.577,32.32,106.764,9.789,0.13,-5.98e-7,-0.696,0.007,2.627e4,3404.8,12.406,0.06,188.633,145.771,3.277,0.748,3.385e7,0,207.143,0.496,0.496,0.306,0.059,0.131,0.018,0.06,3.413e-4,0,0,0,0,-8.466e-6,0.032,13.081,134.391,88.157,0.025,1.792,26.215,790.52,347.185,0.05,0.126
5.163,954.915,258.804,-17.594,258.902,17.606,22.014,0.003,22.014,0.008,7.135,0.633,32.32,106.764,9.789,0.158,-7.024e-7,0.168,0.007,2.627e4,3404.8,12.406,0.06,188.533,145.771,3.269,0.746,3.371e7,0,205.407,0.496,0.496,0.306,0.059,0.131,0.022,0.073,-3.022e-6,0,0,0,0,4.986e-7,0.032,13.081,134.391,88.17,0.016,1.857,26.094,789.362,347.112,0.05,0.127
5.213,967.833,257.926,-17.53,258.024,17.54,22.37,0.003,22.37,0.008,7.104,0.594,32.32,106.764,9.789,0.141,8.214e-7,1.034,0.01,2.627e4,3404.8,12.406,0.06,188.547,145.771,3.27,0.744,3.357e7,0,203.68,0.496,0.496,0.306,0.059,0.131,0.02,0.065,1.699e-4,0,0,0,0,1.895e-5,0.032,13.081,134.391,88.138,0.006,1.919,25.974,788.209,347.039,0.05,0.128
5.263,980.708,257.051,-17.468,257.148,17.474,22.725,0.003,22.725,0.009,7.077,0.481,32.32,106.764,9.788,0.087,-5.571e-6,1.712,0.008,2.627e4,3404.8,12.406,0.06,188.653,145.771,3.278,0.741,3.343e7,0,201.965,0.495,0.495,0.306,0.059,0.13,0.012,0.04,-4.404e-4,0,0,0,0,5.227e-5,0.032,13.081,134.391,88.067,0.001,1.989,25.854,787.059,346.966,0.05,0.129
5.313,993.538,256.179,-17.409,256.276,17.412,23.078,0.004,23.078,0.009,7.057,0.293,32.32,106.764,9.788,0.004,0,-1.957,0.241,2.627e4,3404.8,12.406,0.06,188.838,145.771,3.292,0.739,3.329e7,0,200.264,0.495,0.495,0.306,0.059,0.13,5.18e-4,0.002,-3.196e-4,0,0,0,0,-6.877e-5,0.032,13.081,134.391,87.972,0.001,1.991,25.734,785.913,346.894,0.05,0.13
5.363,1006.326,255.31,-17.354,255.407,17.354,23.431,0.004,23.431,0.009,7.048,0.067,32.32,106.764,9.788,0.114,0,-1.622,0.01,2.627e4,3404.8,12.406,0.06,188.529,145.771,3.269,0.737,3.316e7,0,198.585,0.495,0.495,0.306,0.059,0.13,0.016,0.053,4.19e-4,0,0,0,0,-4.755e-5,0.031,13.081,134.391,87.879,0.008,1.885,25.615,784.771,346.822,0.05,0.131
5.413,1019.069,254.444,-17.296,254.541,17.296,23.783,0.004,23.783,0.009,7.049,0.061,32.32,106.764,9.788,0.177,-4.563e-7,-0.77,0.007,2.627e4,3404.8,12.406,0.06,188.342,145.771,3.254,0.734,3.302e7,0,196.929,0.495,0.495,0.307,0.059,0.129,0.025,0.081,1.097e-4,0,0,0,0,-1.078e-5,0.031,13.081,134.391,87.818,0.017,1.848,25.496,783.633,346.75,0.05,0.131
5.463,1031.77,253.581,-17.232,253.679,17.232,24.136,0.004,24.136,0.009,7.052,0.042,32.32,106.764,9.788,0.169,-1.393e-6,0.18,0.004,2.627e4,3404.8,12.406,0.06,188.333,145.771,3.254,0.732,3.288e7,0,195.282,0.494,0.494,0.307,0.058,0.129,0.024,0.078,5.046e-6,0,0,0,0,5.947e-7,0.031,13.081,134.391,87.804,0.024,1.918,25.378,782.499,346.678,0.05,0.132
5.513,1044.427,252.721,-17.166,252.819,17.166,24.488,0.004,24.488,0.009,7.053,0.05,32.32,106.764,9.788,0.124,-2.009e-6,1.005,0.001,2.627e4,3404.8,12.406,0.06,188.418,145.771,3.26,0.73,3.275e7,0,193.642,0.494,0.494,0.307,0.058,0.129,0.017,0.057,2.718e-4,0,0,0,0,1.864e-5,0.031,13.081,134.391,87.836,0.027,1.948,25.26,781.368,346.606,0.05,0.133
5.563,1057.042,251.864,-17.098,251.963,17.099,24.841,0.004,24.841,0.009,7.046,0.209,32.32,106.764,9.788,0.043,1.595e-6,1.447,0.003,2.627e4,3404.8,12.406,0.06,188.595,145.771,3.274,0.727,3.261e7,0,192.017,0.494,0.494,0.307,0.058,0.129,0.006,0.02,-1.09e-4,0,0,0,0,3.888e-5,0.031,13.081,134.391,87.9,0.022,2.002,25.142,780.242,346.535,0.05,0.134
5.613,1069.614,251.011,-17.031,251.109,17.035,25.193,0.004,25.193,0.01,7.032,0.372,32.32,106.764,9.788,0.041,1.286e-6,-1.484,0.004,2.627e4,3404.8,12.406,0.06,188.573,145.771,3.272,0.725,3.248e7,0,190.414,0.493,0.493,0.307,0.058,0.128,0.006,0.019,9.013e-5,0,0,0,0,-4.116e-5,0.031,13.081,134.391,87.976,0.014,2.025,25.025,779.119,346.464,0.05,0.135
5.663,1082.143,250.161,-16.965,250.259,16.974,25.544,0.004,25.544,0.01,7.008,0.552,32.32,106.764,9.788,0.135,0,-1.002,0.006,2.627e4,3404.8,12.406,0.06,188.309,145.771,3.252,0.723,3.235e7,0,188.84,0.493,0.493,0.307,0.058,0.128,0.019,0.062,1.877e-4,0,0,0,0,-1.89e-5,0.031,13.081,134.391,88.041,0.003,2.15,24.908,778,346.393,0.05,0.136
5.713,1094.63,249.314,-16.902,249.412,16.915,25.893,0.004,25.893,0.01,6.977,0.648,32.32,106.764,9.788,0.185,2.467e-6,-0.13,-0.002,2.627e4,3404.8,12.406,0.06,188.155,145.771,3.24,0.72,3.221e7,0,187.279,0.493,0.493,0.307,0.058,0.128,0.026,0.084,-2.193e-5,0,0,0,0,-3.194e-7,0.031,13.081,134.391,88.07,-0.006,2.241,24.791,776.885,346.323,0.05,0.137
5.763,1107.075,248.471,-16.844,248.568,16.855,26.241,0.005,26.241,0.01,6.945,0.602,32.32,106.764,9.788,0.164,-2.911e-7,0.816,0.004,2.627e4,3404.8,12.406,0.06,188.18,145.771,3.242,0.718,3.208e7,0,185.712,0.493,0.493,0.307,0.058,0.127,0.023,0.075,3.546e-5,0,0,0,0,1.269e-5,0.031,13.081,134.391,88.052,-0.011,2.224,24.675,775.773,346.252,0.05,0.138
5.813,1119.477,247.63,-16.789,247.726,16.795,26.588,0.005,26.588,0.01,6.919,0.454,32.32,106.764,9.788,0.09,-3.569e-7,1.442,0.01,2.627e4,3404.8,12.406,0.06,188.342,145.771,3.254,0.716,3.195e7,0,184.149,0.492,0.492,0.307,0.058,0.127,0.013,0.041,-4.329e-4,0,0,0,0,3.995e-5,0.031,13.081,134.391,87.992,-0.01,2.143,24.56,774.666,346.182,0.05,0.139
5.863,1131.838,246.792,-16.735,246.888,16.738,26.933,0.005,26.933,0.01,6.9,0.316,32.32,106.764,9.788,0.016,7.976e-6,1.748,0.052,2.627e4,3404.8,12.406,0.06,188.502,145.771,3.267,0.714,3.182e7,0,182.613,0.492,0.492,0.308,0.058,0.127,0.002,0.008,-3.07e-4,0,0,0,0,5.912e-5,0.03,13.081,134.391,87.91,-0.004,2.171,24.444,773.562,346.112,0.05,0.14
5.913,1144.156,245.956,-16.684,246.053,16.685,27.278,0.005,27.278,0.01,6.888,0.141,32.32,106.764,9.788,0.077,3.285e-6,-1.583,0.011,2.627e4,3404.8,12.406,0.06,188.32,145.771,3.253,0.711,3.169e7,0,181.092,0.492,0.492,0.308,0.058,0.127,0.011,0.035,2.824e-4,0,0,0,0,-4.883e-5,0.03,13.081,134.391,87.824,0.004,2.114,24.33,772.462,346.043,0.05,0.141
5.963,1156.433,245.123,-16.632,245.22,16.632,27.622,0.005,27.622,0.01,6.885,0.013,32.32,106.764,9.788,0.146,7.416e-7,-1.007,0.01,2.627e4,3404.8,12.406,0.06,188.12,145.771,3.237,0.709,3.156e7,0,179.593,0.492,0.492,0.308,0.058,0.126,0.02,0.066,-2.75e-4,0,0,0,0,-1.99e-5,0.03,13.081,134.391,87.758,0.014,2.076,24.215,771.365,345.973,0.05,0.141
6.013,1168.669,244.293,-16.578,244.39,16.578,27.967,0.005,27.967,0.01,6.886,0.056,32.32,106.764,9.788,0.183,2.695e-6,-0.186,0.004,2.627e4,3404.8,12.406,0.06,188.001,145.771,3.228,0.707,3.143e7,0,178.103,0.491,0.491,0.308,0.057,0.126,0.026,0.083,2.664e-4,0,0,0,0,-6.826e-7,0.03,13.081,134.391,87.728,0.024,2.017,24.101,770.273,345.904,0.05,0.142
6.063,1180.863,243.466,-16.521,243.563,16.521,28.311,0.005,28.311,0.011,6.89,0.033,32.32,106.764,9.788,0.171,2.167e-6,0.748,0.003,2.627e4,3404.8,12.406,0.06,188.007,145.771,3.229,0.704,3.13e7,0,176.618,0.491,0.491,0.308,0.057,0.126,0.024,0.078,-2.135e-4,0,0,0,0,1.113e-5,0.03,13.081,134.391,87.743,0.029,1.975,23.987,769.184,345.835,0.05,0.143
6.113,1193.015,242.641,-16.459,242.739,16.459,28.656,0.005,28.656,0.011,6.887,0.107,32.32,106.764,9.788,0.095,1.72e-6,1.354,0.006,2.627e4,3404.8,12.406,0.06,188.172,145.771,3.241,0.702,3.117e7,0,175.145,0.491,0.491,0.308,0.057,0.125,0.013,0.043,1.495e-4,0,0,0,0,3.669e-5,0.03,13.081,134.391,87.798,0.03,2.046,23.874,768.098,345.767,0.05,0.144
6.163,1205.127,241.82,-16.398,241.917,16.4,29,0.005,29,0.011,6.879,0.229,32.32,106.764,9.788,0.025,-1.221e-6,1.708,0.027,2.627e4,3404.8,12.406,0.06,188.324,145.771,3.253,0.7,3.104e7,0,173.683,0.49,0.49,0.308,0.057,0.125,0.003,0.011,-4.949e-4,0,0,0,0,5.875e-5,0.03,13.081,134.391,87.877,0.028,1.983,23.761,767.017,345.698,0.05,0.145
6.213,1217.197,241.001,-16.337,241.099,16.342,29.343,0.006,29.343,0.011,6.863,0.408,32.32,106.764,9.788,0.078,-9.923e-7,-1.532,0.01,2.627e4,3404.8,12.406,0.06,188.165,145.771,3.241,0.698,3.091e7,0,172.25,0.49,0.49,0.308,0.057,0.125,0.011,0.035,1.69e-4,0,0,0,0,-4.761e-5,0.03,13.081,134.391,87.96,0.026,2.058,23.648,765.939,345.63,0.05,0.145
6.263,1229.227,240.186,-16.28,240.283,16.288,29.686,0.006,29.686,0.011,6.84,0.504,32.32,106.764,9.788,0.135,4.066e-6,-1.046,0.002,2.627e4,3404.8,12.406,0.06,187.996,145.771,3.228,0.696,3.079e7,0,170.826,0.49,0.49,0.308,0.057,0.125,0.019,0.061,-3.834e-5,0,0,0,0,-2.236e-5,0.03,13.081,134.391,88.026,0.023,2.01,23.536,764.864,345.562,0.05,0.147
6.313,1241.216,239.373,-16.224,239.47,16.234,30.027,0.006,30.027,0.011,6.813,0.565,32.32,106.764,9.788,0.172,0,-0.298,0.005,2.627e4,3404.8,12.406,0.06,187.878,145.771,3.219,0.693,3.066e7,0,169.417,0.49,0.49,0.308,0.057,0.124,0.024,0.078,1.354e-4,0,0,0,0,-1.82e-6,0.03,13.081,134.391,88.06,0.018,2.022,23.424,763.794,345.494,0.05,0.148
6.363,1253.164,238.563,-16.171,238.66,16.18,30.367,0.006,30.367,0.011,6.785,0.549,32.32,106.764,9.788,0.166,-3.179e-7,0.505,7.076e-4,2.627e4,3404.8,12.406,0.06,187.869,145.771,3.218,0.691,3.054e7,0,168.012,0.489,0.49,0.309,0.057,0.124,0.023,0.074,2.671e-4,0,0,0,0,5.281e-6,0.029,13.081,134.391,88.054,0.014,2.015,23.313,762.727,345.427,0.05,0.148
6.413,1265.072,237.756,-16.121,237.852,16.127,30.706,0.006,30.706,0.011,6.759,0.462,32.32,106.764,9.788,0.117,5.481e-7,1.194,0.009,2.627e4,3404.8,12.406,0.06,187.966,145.771,3.226,0.689,3.041e7,0,166.613,0.489,0.489,0.309,0.057,0.124,0.016,0.053,-2.537e-4,0,0,0,0,2.972e-5,0.029,13.081,134.391,88.01,0.009,1.991,23.202,761.663,345.359,0.05,0.15
6.463,1276.94,236.951,-16.072,237.047,16.076,31.043,0.006,31.043,0.011,6.74,0.323,32.32,106.764,9.788,0.038,-1.998e-6,1.525,0.024,2.627e4,3404.8,12.406,0.06,188.142,145.771,3.239,0.687,3.028e7,0,165.225,0.489,0.489,0.309,0.057,0.123,0.005,0.017,-2.618e-4,0,0,0,0,4.878e-5,0.029,13.081,134.391,87.939,0.005,1.938,23.091,760.603,345.292,0.05,0.153
6.513,1288.768,236.149,-16.024,236.245,16.026,31.38,0.006,31.38,0.012,6.726,0.219,32.32,106.764,9.788,0.024,-3.237e-6,-1.573,0.044,2.627e4,3404.8,12.406,0.06,188.153,145.771,3.24,0.685,3.016e7,0,163.861,0.489,0.489,0.309,0.057,0.123,0.003,0.01,-2.517e-4,0,0,0,0,-5.227e-5,0.029,13.081,134.391,87.86,4.07e-4,1.993,22.981,759.547,345.225,0.05,0.154
6.563,1300.555,235.349,-15.977,235.445,15.978,31.716,0.006,31.716,0.012,6.718,0.1,32.32,106.764,9.787,0.095,4.099e-6,-1.323,0.006,2.627e4,3404.8,12.406,0.06,187.949,145.771,3.224,0.682,3.004e7,0,162.51,0.488,0.488,0.309,0.057,0.123,0.013,0.043,1.706e-4,0,0,0,0,-3.72e-5,0.029,13.081,134.391,87.787,-3.335e-5,1.981,22.871,758.494,345.159,0.05,0.155
6.613,1312.303,234.551,-15.931,234.647,15.931,32.052,0.007,32.052,0.012,6.716,0.006,32.32,106.764,9.787,0.158,1.35e-6,-0.694,0.007,2.627e4,3404.8,12.406,0.06,187.767,145.771,3.21,0.68,2.991e7,0,161.172,0.488,0.488,0.309,0.056,0.123,0.022,0.071,4.457e-4,0,0,0,0,-1.032e-5,0.029,13.081,134.391,87.735,0.002,1.902,22.761,757.449,345.092,0.05,0.156
6.663,1324.01,233.756,-15.879,233.852,15.879,32.388,0.007,32.388,0.012,6.717,0.019,32.32,106.764,9.787,0.145,1.906e-6,-0.009,0.001,2.627e4,3404.8,12.406,0.06,187.777,145.771,3.211,0.678,2.979e7,0,159.853,0.488,0.488,0.309,0.056,0.122,0.02,0.065,-2.907e-4,0,0,0,0,0,0.029,13.081,134.391,87.718,0.006,2.004,22.652,756.446,345.026,0.05,0.157
6.713,1335.678,232.963,-15.826,233.06,15.826,32.723,0.007,32.723,0.012,6.713,0.107,32.32,106.764,9.787,0.093,2.354e-6,0.515,0.008,2.627e4,3404.8,12.406,0.06,187.884,145.771,3.219,0.676,2.967e7,0,158.543,0.488,0.488,0.309,0.056,0.122,0.013,0.041,5.845e-5,0,0,0,0,5.751e-6,0.029,13.081,134.391,87.732,0.011,2.134,22.543,755.447,344.96,0.05,0.157
6.763,1347.307,232.173,-15.772,232.27,15.774,33.059,0.007,33.059,0.012,6.706,0.204,32.32,106.764,9.787,0.034,-5.978e-7,0.791,0.007,2.627e4,3404.8,12.406,0.06,188.01,145.771,3.229,0.674,2.955e7,0,157.244,0.488,0.488,0.309,0.056,0.122,0.005,0.015,-1.831e-4,0,0,0,0,1.367e-5,0.029,13.081,134.391,87.767,0.018,2.214,22.435,754.451,344.895,0.05,0.158
6.813,1358.896,231.386,-15.72,231.483,15.723,33.394,0.007,33.394,0.012,6.693,0.292,32.32,106.764,9.787,0.021,-5.602e-7,-0.812,0.014,2.627e4,3404.8,12.406,0.06,188.02,145.771,3.23,0.672,2.943e7,0,155.957,0.487,0.487,0.309,0.056,0.122,0.003,0.01,4.258e-4,0,0,0,0,-1.45e-5,0.029,13.081,134.391,87.808,0.026,2.253,22.327,753.459,344.829,0.05,0.159
6.863,1370.445,230.601,-15.669,230.698,15.673,33.728,0.007,33.728,0.012,6.677,0.356,32.32,106.764,9.787,0.064,1.094e-6,-0.63,0.003,2.627e4,3404.8,12.406,0.06,187.89,145.771,3.22,0.669,2.932e7,0,154.681,0.487,0.487,0.31,0.056,0.121,0.009,0.029,-1.601e-4,0,0,0,0,-8.791e-6,0.028,13.081,134.391,87.845,0.033,2.26,22.219,752.47,344.764,0.05,0.161
6.913,1381.956,229.819,-15.619,229.915,15.624,34.061,0.007,34.061,0.012,6.658,0.403,32.32,106.764,9.787,0.094,1.909e-6,-0.288,0.003,2.627e4,3404.8,12.406,0.06,187.79,145.771,3.212,0.667,2.92e7,0,153.417,0.487,0.487,0.31,0.056,0.121,0.013,0.042,-4.41e-4,0,0,0,0,-1.848e-6,0.028,13.081,134.391,87.869,0.033,2.278,22.112,751.484,344.699,0.05,0.162
6.963,1393.427,229.039,-15.571,229.135,15.576,34.394,0.007,34.394,0.012,6.637,0.423,32.32,106.764,9.787,0.109,1.193e-6,0.143,0.006,2.627e4,3404.8,12.406,0.06,187.731,145.771,3.208,0.665,2.908e7,0,152.164,0.487,0.487,0.31,0.056,0.121,0.015,0.049,-3.283e-4,0,0,0,0,4.609e-7,0.028,13.081,134.391,87.872,0.028,2.312,22.005,750.502,344.634,0.05,0.163
7.013,1404.86,228.262,-15.524,228.358,15.529,34.725,0.008,34.725,0.013,6.616,0.405,32.32,106.764,9.787,0.099,1.889e-6,0.616,0.011,2.627e4,3404.8,12.406,0.06,187.734,145.771,3.208,0.663,2.896e7,0,150.919,0.486,0.486,0.31,0.056,0.121,0.014,0.044,-4.585e-4,0,0,0,0,8.577e-6,0.028,13.081,134.391,87.853,0.019,2.339,21.898,749.523,344.569,0.05,0.164
7.063,1416.253,227.487,-15.479,227.583,15.483,35.055,0.008,35.055,0.013,6.598,0.325,32.32,106.764,9.787,0.049,0,0.901,0.012,2.627e4,3404.8,12.406,0.06,187.837,145.771,3.216,0.661,2.884e7,0,149.677,0.486,0.486,0.31,0.056,0.12,0.007,0.022,1.438e-5,0,0,0,0,1.847e-5,0.028,13.081,134.391,87.814,0.008,2.28,21.792,748.547,344.505,0.05,0.164
