# Time (s),Altitude (m),Vertical velocity (m/s),Vertical acceleration (m/s²),Total velocity (m/s),Total acceleration (m/s²),Position East of launch (m),Position North of launch (m),Lateral distance (m),Lateral direction (°),Lateral velocity (m/s),Lateral acceleration (m/s²),Latitude (°),Longitude (°),Gravitational acceleration (m/s²),Angle of attack (°),Roll rate (°/s),Pitch rate (°/s),Yaw rate (°/s),Mass (g),Motor mass (g),Longitudinal moment of inertia (kg·m²),Rotational moment of inertia (kg·m²),CP location (in),CG location (in),Stability margin calibers (​),Mach number (​),Reynolds number (​),Thrust (N),Drag force (N),Drag coefficient (​),Axial drag coefficient (​),Friction drag coefficient (​),Pressure drag coefficient (​),Base drag coefficient (​),Normal force coefficient (​),Pitch moment coefficient (​),Yaw moment coefficient (​),Side force coefficient (​),Roll moment coefficient (​),Roll forcing coefficient (​),Roll damping coefficient (​),Pitch damping coefficient (​),Coriolis acceleration (m/s²),Reference length (in),Reference area (cm²),Vertical orientation (zenith) (°),Lateral orientation (azimuth) (°),Wind velocity (m/s),Air temperature (°C),Air pressure (mbar),Speed of sound (m/s),Simulation time step (s),Computation time (s)
0.01,-3.54E-04,-0.071,-7.081,0.071,7.081,0,0,0,0,0,0,28.61,-80.6,9.792,92.004,0,0,0,2.872e4,6913.174,24.997,0.063,NaN,75.164,NaN,0.006,4.4e5,77.861,-2.16E-06,0.614,-6.46E-05,0.533,0.008,0.073,NaN,NaN,NaN,NaN,NaN,NaN,NaN,NaN,9.066e-6,5.12,132.83,90,0,2.024,15,1013.25,340.389,0.01,0.009
0.02,-8.29E-05,-0.017,-1.657,0.017,1.657,0,0,0,0,0,0,28.61,-80.6,9.792,90.474,0,0,0,2.871e4,6909.229,24.993,0.063,NaN,75.159,NaN,0.006,4.351e5,233.584,-2.85E-08,0.615,-8.72E-07,0.534,0.008,0.073,NaN,NaN,NaN,NaN,NaN,NaN,NaN,NaN,2.123e-6,5.12,132.83,90,0,2.003,15,1013.25,340.389,0.01,0.014
0.03,1.883e-4,0.038,3.768,0.038,3.768,0,0,0,0,0,0,28.61,-80.6,9.792,88.911,0,0,0,2.871e4,6905.283,24.988,0.063,NaN,75.153,NaN,0.006,4.306e5,389.307,3.36e-7,0.616,1.051e-5,0.535,0.008,0.073,NaN,NaN,NaN,NaN,NaN,NaN,NaN,NaN,4.823e-6,5.12,132.83,90,0,1.982,15,1013.25,340.389,0.01,0.017
0.04,0.001,0.13,9.194,0.13,9.194,0,0,0,0,0,0,28.61,-80.6,9.792,86.219,0,0,0,2.871e4,6901.338,24.984,0.063,NaN,75.148,NaN,0.006,4.269e5,545.03,1.347e-5,0.617,4.286e-4,0.536,0.008,0.073,NaN,NaN,NaN,NaN,NaN,NaN,NaN,NaN,1.659e-5,5.12,132.83,90,0,1.961,15,1013.25,340.389,0.01,0.02
0.05,0.003,0.276,14.622,0.276,14.622,0,0,0,0,0,0,28.61,-80.6,9.792,81.909,0,0,0,2.87e4,6897.392,24.98,0.063,NaN,75.142,NaN,0.006,4.256e5,700.753,1.252e-4,0.618,0.004,0.537,0.008,0.073,NaN,NaN,NaN,NaN,NaN,NaN,NaN,NaN,3.531e-5,5.12,132.83,90,0,1.94,15,1013.25,340.389,0.01,0.022
0.06,0.007,0.476,20.052,0.476,20.052,0,0,0,0,0,0,28.61,-80.6,9.792,76.231,0,0,0,2.87e4,6893.447,24.976,0.063,NaN,75.137,NaN,0.006,4.347e5,856.476,6.004e-4,0.615,0.018,0.534,0.008,0.073,NaN,NaN,NaN,NaN,NaN,NaN,NaN,NaN,6.098e-5,5.12,132.83,90,0,1.944,15,1013.249,340.389,0.01,0.025
0.07,0.013,0.731,25.483,0.731,25.483,0,0,0,0,0,0,28.61,-80.6,9.792,69.421,0,0,0,2.869e4,6889.501,24.972,0.063,NaN,75.131,NaN,0.006,4.518e5,1012.198,0.002,0.611,0.056,0.53,0.008,0.073,NaN,NaN,NaN,NaN,NaN,NaN,NaN,NaN,9.361e-5,5.12,132.83,90,0,1.947,15,1013.248,340.389,0.01,0.027
0.08,0.022,1.04,30.915,1.04,30.915,0,0,0,0,0,0,28.61,-80.6,9.792,61.933,0,0,0,2.869e4,6885.556,24.968,0.063,NaN,75.126,NaN,0.006,4.802e5,1167.921,0.005,0.604,0.127,0.523,0.008,0.073,NaN,NaN,NaN,NaN,NaN,NaN,NaN,NaN,1.332e-4,5.12,132.83,90,0,1.951,15,1013.247,340.389,0.01,0.03
0.09,0.034,1.403,36.252,1.403,36.252,0,0,0,0,0,0,28.61,-80.6,9.792,54.333,0,0,0,2.869e4,6880.674,24.962,0.063,NaN,75.119,NaN,0.007,5.226e5,1320.814,0.011,0.594,0.228,0.514,0.008,0.073,NaN,NaN,NaN,NaN,NaN,NaN,NaN,NaN,1.796e-4,5.12,132.83,90,0,1.954,15,1013.246,340.389,0.01,0.033
0.1,0.05,1.786,38.341,1.786,38.341,0,0,0,0,0,0,28.61,-80.6,9.792,47.63,0,0,0,2.868e4,6872.045,24.953,0.063,NaN,75.107,NaN,0.008,5.757e5,1380.327,0.019,0.584,0.335,0.503,0.008,0.073,NaN,NaN,NaN,NaN,NaN,NaN,NaN,NaN,2.287e-4,5.12,132.83,90,0,1.958,15,1013.244,340.389,0.01,0.035
0.11,0.07,2.174,38.851,2.174,38.851,0,0,0,0,0,0,28.61,-80.6,9.792,42.186,0,0,0,2.867e4,6863.416,24.944,0.063,NaN,75.095,NaN,0.009,6.374e5,1394.564,0.03,0.573,0.426,0.493,0.008,0.073,NaN,NaN,NaN,NaN,NaN,NaN,NaN,NaN,2.784e-4,5.12,132.83,90,0,1.971,15,1013.242,340.389,0.01,0.037
0.12,0.093,2.568,39.362,2.568,39.362,0,0,0,0,0,0,28.61,-80.6,9.792,37.68,0,0,0,2.866e4,6854.787,24.935,0.063,NaN,75.083,NaN,0.01,7.048e5,1408.801,0.043,0.563,0.499,0.483,0.008,0.073,NaN,NaN,NaN,NaN,NaN,NaN,NaN,NaN,3.288e-4,5.12,132.83,90,0,1.983,14.999,1013.239,340.389,0.01,0.04
0.13,0.121,2.967,39.873,2.967,39.873,0,0,0,0,0,0,28.61,-80.6,9.792,33.934,0,0,0,2.865e4,6846.158,24.926,0.063,NaN,75.071,NaN,0.011,7.767e5,1423.038,0.058,0.554,0.553,0.473,0.008,0.073,NaN,NaN,NaN,NaN,NaN,NaN,NaN,NaN,3.798e-4,5.12,132.83,90,0,1.996,14.999,1013.236,340.388,0.01,0.042
0.14,0.153,3.37,40.385,3.37,40.385,0,0,0,0,0,0,28.61,-80.6,9.792,30.794,0,0,0,2.864e4,6837.529,24.917,0.063,NaN,75.059,NaN,0.012,8.523e5,1437.275,0.074,0.545,0.592,0.464,0.008,0.073,NaN,NaN,NaN,NaN,NaN,NaN,NaN,NaN,4.315e-4,5.12,132.83,90,0,2.009,14.999,1013.232,340.388,0.01,0.044
0.15,0.188,3.779,40.897,3.779,40.897,0,0,0,0,0,0,28.61,-80.6,9.792,28.141,0,0,0,2.863e4,6828.901,24.907,0.063,NaN,75.047,NaN,0.013,9.31e5,1451.512,0.093,0.537,0.619,0.456,0.008,0.073,NaN,NaN,NaN,NaN,NaN,NaN,NaN,NaN,4.839e-4,5.12,132.83,90,0,2.021,14.999,1013.228,340.388,0.01,0.047
0.16,0.228,4.193,41.409,4.193,41.409,0,0,0,0,0,0,28.61,-80.6,9.792,25.78,0,0,0,2.863e4,6820.272,24.898,0.063,NaN,75.035,NaN,0.014,1.012e6,1465.749,0.113,0.529,0.638,0.449,0.008,0.073,NaN,NaN,NaN,NaN,NaN,NaN,NaN,NaN,5.369e-4,5.12,132.83,90,0,2.025,14.999,1013.223,340.388,0.01,0.049
0.17,0.272,4.613,41.921,4.613,41.921,0,0,0,0,0,0,28.61,-80.6,9.792,23.748,0,0,0,2.862e4,6811.643,24.889,0.063,NaN,75.023,NaN,0.015,1.095e6,1479.986,0.134,0.523,0.649,0.442,0.008,0.073,NaN,NaN,NaN,NaN,NaN,NaN,NaN,NaN,5.906e-4,5.12,132.83,90,0,2.029,14.998,1013.218,340.388,0.01,0.052
0.18,0.321,5.037,42.433,5.037,42.433,0,0,0,0,0,0,28.61,-80.6,9.792,21.983,0,0,0,2.861e4,6803.014,24.88,0.063,NaN,75.01,NaN,0.016,1.18e6,1494.223,0.157,0.516,0.654,0.435,0.008,0.073,NaN,NaN,NaN,NaN,NaN,NaN,NaN,NaN,6.449e-4,5.12,132.83,90,0,2.033,14.998,1013.212,340.388,0.01,0.054
0.19,0.373,5.466,42.946,5.466,42.946,0,0,0,0,0,0,28.61,-80.6,9.792,20.44,0,0,0,2.86e4,6794.385,24.871,0.063,NaN,74.998,NaN,0.017,1.267e6,1508.46,0.181,0.51,0.655,0.429,0.008,0.073,NaN,NaN,NaN,NaN,NaN,NaN,NaN,NaN,6.999e-4,5.12,132.83,90,0,2.037,14.998,1013.206,340.387,0.01,0.056
0.2,0.43,5.901,43.459,5.901,43.459,0,0,0,0,0,0,28.61,-80.6,9.792,19.081,0,0,0,2.859e4,6785.756,24.861,0.063,NaN,74.986,NaN,0.018,1.356e6,1522.697,0.207,0.504,0.653,0.424,0.008,0.073,NaN,NaN,NaN,NaN,NaN,NaN,NaN,NaN,7.555e-4,5.12,132.83,90,0,2.041,14.997,1013.2,340.387,0.01,0.059
0.21,0.491,6.34,43.972,6.34,43.972,0,0,0,0,0,0,28.61,-80.6,9.792,18.138,0,0,0,2.858e4,6777.127,24.852,0.063,NaN,74.974,NaN,0.02,1.449e6,1536.935,0.235,0.499,0.648,0.418,0.008,0.073,NaN,NaN,NaN,NaN,NaN,NaN,NaN,NaN,8.118e-4,5.12,132.83,90,0,2.077,14.997,1013.192,340.387,0.01,0.063
0.22,0.557,6.785,44.486,6.785,44.486,0,0,0,0,0,0,28.61,-80.6,9.792,17.296,0,0,0,2.857e4,6768.498,24.843,0.063,NaN,74.962,NaN,0.021,1.544e6,1551.172,0.264,0.494,0.642,0.413,0.008,0.073,NaN,NaN,NaN,NaN,NaN,NaN,NaN,NaN,8.687e-4,5.12,132.83,90,0,2.113,14.996,1013.185,340.387,0.01,0.066
0.23,0.627,7.235,44.999,7.235,44.999,0,0,0,0,0,0,28.61,-80.6,9.792,16.54,0,0,0,2.856e4,6759.87,24.834,0.063,NaN,74.95,NaN,0.022,1.639e6,1565.409,0.295,0.489,0.636,0.409,0.008,0.073,NaN,NaN,NaN,NaN,NaN,NaN,NaN,NaN,9.263e-4,5.12,132.83,90,0,2.149,14.996,1013.176,340.386,0.01,0.068
0.24,0.702,7.69,45.513,7.69,45.513,0,0,0,0,0,0,28.61,-80.6,9.792,15.858,0,0,0,2.856e4,6751.241,24.825,0.063,NaN,74.938,NaN,0.023,1.736e6,1579.646,0.327,0.485,0.629,0.404,0.008,0.073,NaN,NaN,NaN,NaN,NaN,NaN,NaN,NaN,9.846e-4,5.12,132.83,90,0,2.184,14.995,1013.168,340.386,0.01,0.071
0.25,0.781,8.15,46.028,8.15,46.028,0,0,0,0,0,0,28.61,-80.6,9.792,15.238,0,0,0,2.855e4,6742.612,24.815,0.063,NaN,74.926,NaN,0.025,1.835e6,1593.883,0.36,0.481,0.621,0.4,0.008,0.073,NaN,NaN,NaN,NaN,NaN,NaN,NaN,NaN,0.001,5.12,132.83,90,0,2.22,14.995,1013.158,340.386,0.01,0.077
0.26,0.865,8.616,46.542,8.616,46.542,0,0,0,0,0,0,28.61,-80.6,9.792,14.465,0,0,0,2.854e4,6733.983,24.806,0.063,NaN,74.914,NaN,0.026,1.933e6,1608.12,0.394,0.477,0.612,0.396,0.008,0.073,NaN,NaN,NaN,NaN,NaN,NaN,NaN,NaN,0.001,5.12,132.83,90,0,2.223,14.994,1013.149,340.385,0.01,0.081
0.27,0.953,9.086,47.049,9.086,47.049,0,0,0,0,0,0,28.61,-80.6,9.792,13.76,0,0,0,2.853e4,6725.18,24.797,0.063,NaN,74.901,NaN,0.027,2.032e6,1622.123,0.428,0.473,0.602,0.393,0.008,0.073,NaN,NaN,NaN,NaN,NaN,NaN,NaN,NaN,0.001,5.12,132.83,90,0,2.225,14.994,1013.138,340.385,0.01,0.084
0.28,1.046,9.559,47.287,9.559,47.287,0,0,0,0,0,0,28.61,-80.6,9.792,13.116,0,0,0,2.852e4,6715.681,24.786,0.063,NaN,74.888,NaN,0.029,2.132e6,1628.418,0.464,0.47,0.592,0.389,0.008,0.073,NaN,NaN,NaN,NaN,NaN,NaN,NaN,NaN,0.001,5.12,132.83,90,0,2.227,14.993,1013.127,340.385,0.01,0.086
0.295,1.195,10.27,47.426,10.27,47.426,-1.04E-05,0,1.04e-5,-180,0.001,0.095,28.61,-80.6,9.792,12.248,0,0.007,-1.40E-06,2.851e4,6701.432,24.771,0.063,78.158,74.868,0.643,0.031,2.283e6,1631.614,0.519,0.465,0.578,0.384,0.008,0.073,2.963,1.904,-4.34E-04,0,0,0,0,1.15e-6,0.001,5.12,132.83,90,0,2.231,14.992,1013.11,340.384,0.015,0.09
0.318,1.438,11.341,47.634,11.341,47.635,-6.61E-05,0,6.607e-5,-180,0.004,0.098,28.61,-80.6,9.792,11.017,0,0.02,2.746e-6,2.849e4,6680.059,24.748,0.063,78.667,74.837,0.748,0.034,2.509e6,1636.409,0.605,0.458,0.557,0.378,0.008,0.073,2.539,1.899,-2.53E-04,0,0,0,0,7.347e-6,0.001,5.12,132.83,90,-0.002,2.212,14.991,1013.081,340.383,0.023,0.091
0.351,1.848,12.958,47.947,12.958,47.947,-2.43E-04,0,2.429e-4,-180,0.007,0.101,28.61,-80.6,9.792,9.491,0,0.044,6.796e-6,2.845e4,6647.999,24.714,0.063,79.384,74.792,0.897,0.039,2.853e6,1643.6,0.749,0.454,0.534,0.373,0.008,0.073,2.051,1.84,-4.84E-04,0,0,0,0,2.709e-5,0.002,5.12,132.83,89.999,-0.003,2.174,14.988,1013.033,340.382,0.034,0.093
0.401,2.556,15.376,48.411,15.376,48.411,-7.20E-04,0,7.195e-4,-180,0.012,0.108,28.61,-80.6,9.792,7.957,0,0.089,2.885e-6,2.841e4,6600.503,24.663,0.063,80.22,74.725,1.073,0.046,3.372e6,1654.308,1.01,0.454,0.515,0.373,0.008,0.073,1.604,1.722,-7.55E-05,0,0,0,0,8.001e-5,0.002,5.12,132.83,89.995,-0.004,2.163,14.983,1012.95,340.379,0.05,0.094
0.451,3.386,17.821,48.949,17.821,48.949,-0.001,-7.06E-09,0.001,-180,0.018,0.112,28.61,-80.6,9.792,6.811,0,0.146,2.223e-5,2.836e4,6552.919,24.611,0.063,80.936,74.657,1.226,0.053,3.898e6,1667.094,1.315,0.454,0.502,0.373,0.008,0.073,1.298,1.592,-4.89E-04,0,0,0,0,1.618e-4,0.002,5.12,132.83,89.99,-0.004,2.15,14.978,1012.853,340.376,0.05,0.096
0.501,4.339,20.294,49.499,20.294,49.499,-0.002,-1.66E-08,0.002,-180,0.024,0.13,28.61,-80.6,9.792,6.534,0,0.217,4.366e-6,2.831e4,6504.07,24.558,0.063,81.123,74.587,1.277,0.06,4.436e6,1680.178,1.693,0.454,0.499,0.373,0.008,0.074,1.228,1.568,2.751e-4,0,0,0,0,2.785e-4,0.003,5.12,132.83,89.981,-0.003,2.355,14.972,1012.741,340.372,0.05,0.098
0.551,5.416,22.795,50.059,22.795,50.059,-0.004,-3.28E-08,0.004,-180,0.03,0.116,28.61,-80.6,9.792,5.463,0,0.303,-1.43E-05,2.826e4,6455.221,24.505,0.063,81.901,74.517,1.442,0.067,4.972e6,1693.495,2.077,0.454,0.487,0.373,0.008,0.074,0.971,1.399,2.362e-4,0,0,0,0,4.317e-4,0.003,5.12,132.83,89.968,-0.002,2.223,14.965,1012.615,340.368,0.05,0.102
0.601,6.619,25.323,50.62,25.323,50.62,-0.005,-5.69E-08,0.005,-179.999,0.035,0.087,28.61,-80.6,9.792,4.387,0,0.397,-2.83E-05,2.821e4,6406.372,24.451,0.062,82.783,74.447,1.628,0.075,5.514e6,1706.813,2.5,0.454,0.477,0.373,0.008,0.074,0.734,1.194,3.913e-4,0,0,0,0,6.001e-4,0.003,5.12,132.83,89.95,-8.28E-04,2,14.957,1012.474,340.363,0.05,0.104
0.651,7.949,27.88,51.176,27.88,51.176,-0.007,-8.89E-08,0.007,-179.999,0.039,0.071,28.61,-80.6,9.792,3.92,0,0.498,1.783e-5,2.816e4,6356.917,24.397,0.062,83.205,74.375,1.725,0.082,6.067e6,1719.972,3,0.454,0.472,0.373,0.008,0.074,0.638,1.1,1.458e-4,0,0,0,0,7.801e-4,0.004,5.12,132.83,89.928,1.877e-4,1.984,14.948,1012.318,340.358,0.05,0.107
0.701,9.408,30.462,51.694,30.462,51.694,-0.009,-1.26E-07,0.009,-179.999,0.042,0.055,28.61,-80.6,9.792,3.667,0,0.612,-6.99E-05,2.811e4,6306.763,24.342,0.062,83.445,74.303,1.786,0.09,6.627e6,1732.04,3.564,0.454,0.47,0.373,0.008,0.074,0.588,1.049,-4.71E-04,0,0,0,0,9.879e-4,0.004,5.12,132.83,89.9,0.001,2.048,14.939,1012.147,340.352,0.05,0.11
0.751,10.996,33.07,52.205,33.07,52.205,-0.012,-1.65E-07,0.012,-179.999,0.044,0.022,28.61,-80.6,9.792,3.259,0,0.738,1.775e-5,2.806e4,6256.609,24.287,0.062,83.847,74.23,1.878,0.097,7.19e6,1743.898,4.169,0.454,0.467,0.373,0.008,0.074,0.51,0.956,-2.38E-04,0,0,0,0,0.001,0.004,5.12,132.83,89.866,0.002,2.005,14.929,1011.96,340.346,0.05,0.114
0.801,12.716,35.704,52.715,35.704,52.715,-0.014,-2.01E-07,0.014,-179.999,0.044,0.016,28.61,-80.6,9.792,2.967,0,0.875,4.226e-5,2.801e4,6206.456,24.231,0.062,84.149,74.157,1.952,0.105,7.76e6,1755.757,4.836,0.454,0.465,0.372,0.008,0.074,0.456,0.888,-6.51E-06,0,0,0,0,0.001,0.005,5.12,132.83,89.826,0.001,2.003,14.917,1011.759,340.339,0.05,0.116
0.851,14.567,38.362,53.211,38.362,53.211,-0.016,-2.31E-07,0.016,-179.999,0.043,0.05,28.61,-80.6,9.792,2.871,0,1.026,-5.75E-05,2.796e4,6155.297,24.174,0.062,84.255,74.082,1.987,0.113,8.336e6,1767.149,5.574,0.454,0.465,0.372,0.008,0.074,0.438,0.869,2.699e-4,0,0,0,0,0.002,0.005,5.12,132.83,89.779,0.001,2.115,14.905,1011.542,340.332,0.05,0.119
0.901,16.552,41.044,53.679,41.044,53.679,-0.018,-2.55E-07,0.018,-179.999,0.039,0.1,28.61,-80.6,9.792,2.707,0,1.194,-1.30E-04,2.791e4,6103.982,24.117,0.062,84.434,74.006,2.037,0.121,8.916e6,1777.774,6.365,0.455,0.464,0.372,0.008,0.074,0.409,0.831,5.943e-5,0,0,0,0,0.002,0.005,5.12,132.83,89.723,0.001,2.178,14.892,1011.309,340.324,0.05,0.121
0.951,18.672,43.749,54.146,43.749,54.147,-0.02,-2.67E-07,0.02,-179.999,0.032,0.172,28.61,-80.6,9.792,2.441,0,1.375,5.537e-5,2.786e4,6052.667,24.059,0.062,84.73,73.931,2.109,0.129,9.501e6,1788.387,7.205,0.455,0.462,0.372,0.008,0.075,0.363,0.763,-1.09E-04,0,0,0,0,0.002,0.006,5.12,132.83,89.659,0.001,2.158,14.879,1011.06,340.315,0.05,0.123
1.001,20.928,46.477,54.61,46.477,54.611,-0.021,-2.62E-07,0.021,-179.999,0.021,0.261,28.61,-80.6,9.792,2.152,0,1.56,6.179e-5,2.781e4,6001.079,24.001,0.062,85.065,73.854,2.19,0.137,1.009e7,1798.891,8.1,0.455,0.461,0.372,0.008,0.075,0.314,0.684,-7.19E-05,0,0,0,0,0.003,0.006,5.12,132.83,89.586,8.802e-4,2.104,14.864,1010.796,340.306,0.05,0.124
1.051,23.32,49.226,55.007,49.226,55.008,-0.022,-2.41E-07,0.022,-179.999,0.006,0.35,28.61,-80.6,9.792,2.01,0,1.753,-1.11E-04,2.775e4,5948.806,23.942,0.062,85.238,73.777,2.239,0.145,1.068e7,1807.506,9.072,0.455,0.46,0.372,0.008,0.075,0.29,0.646,-4.55E-04,0,0,0,0,0.003,0.006,5.12,132.83,89.503,7.92e-4,2.161,14.848,1010.515,340.297,0.05,0.126
1.101,25.851,51.992,55.377,51.992,55.379,-0.022,-2.00E-07,0.022,-179.999,0.014,0.463,28.61,-80.6,9.792,1.781,0,1.952,1.951e-5,2.77e4,5896.533,23.883,0.062,85.52,73.699,2.309,0.153,1.128e7,1815.435,10.096,0.455,0.459,0.372,0.008,0.075,0.253,0.581,2.182e-4,0,0,0,0,0.003,0.007,5.12,132.83,89.41,8.158e-4,2.138,14.832,1010.218,340.287,0.05,0.127
1.151,28.52,54.778,55.747,54.778,55.75,-0.02,-1.30E-07,0.02,-180,0.041,0.594,28.61,-80.6,9.792,1.545,0,2.15,-2.30E-04,2.765e4,5844.26,23.824,0.062,85.819,73.62,2.383,0.161,1.188e7,1823.363,11.181,0.455,0.459,0.372,0.008,0.075,0.216,0.511,2.99e-4,0,0,0,0,0.004,0.007,5.12,132.83,89.308,9.816e-4,2.099,14.815,1009.905,340.277,0.05,0.129
1.201,31.329,57.58,56.085,57.58,56.09,-0.017,-1.48E-08,0.017,-180,0.074,0.74,28.61,-80.6,9.792,1.321,3.015e-7,2.341,-4.17E-05,2.76e4,5791.554,23.764,0.062,86.114,73.541,2.456,0.169,1.249e7,1830.425,12.332,0.456,0.458,0.372,0.008,0.076,0.182,0.444,4.92e-4,0,0,0,0,0.004,0.007,5.12,132.83,89.196,0.001,2.063,14.796,1009.576,340.265,0.05,0.131
1.251,34.278,60.394,56.326,60.394,56.333,-0.013,1.805e-7,0.013,179.999,0.115,0.903,28.61,-80.6,9.792,1.084,0,2.521,-2.75E-04,2.754e4,5738.65,23.703,0.062,86.437,73.461,2.534,0.178,1.309e7,1834.84,13.545,0.456,0.457,0.372,0.008,0.076,0.147,0.368,9.366e-5,0,0,0,0,0.004,0.008,5.12,132.83,89.074,0.002,2.004,14.777,1009.23,340.254,0.05,0.133
1.301,37.369,63.22,56.558,63.22,56.568,-0.006,4.926e-7,0.006,179.995,0.164,1.063,28.61,-80.6,9.792,0.961,3.905e-7,2.691,-7.47E-05,2.749e4,5685.745,23.642,0.062,86.612,73.381,2.584,0.186,1.37e7,1839.073,14.833,0.456,0.457,0.372,0.008,0.076,0.129,0.33,3.171e-4,0,0,0,0,0.004,0.008,5.12,132.83,88.944,0.002,2.063,14.757,1008.867,340.242,0.05,0.135
1.351,40.601,66.057,56.787,66.058,56.801,0.004,9.67e-7,0.004,0.014,0.222,1.248,28.61,-80.6,9.792,0.772,0,2.851,-2.84E-04,2.744e4,5632.816,23.581,0.062,86.884,73.301,2.653,0.194,1.431e7,1843.303,16.18,0.456,0.457,0.372,0.008,0.076,0.102,0.268,2.642e-4,0,0,0,0,0.005,0.008,5.12,132.83,88.805,0.002,2.047,14.736,1008.488,340.229,0.05,0.138
1.401,43.975,68.905,56.992,68.906,57.011,0.017,1.649e-6,0.017,0.006,0.29,1.466,28.61,-80.6,9.792,0.482,0,2.977,-5.40E-04,2.738e4,5579.529,23.519,0.061,87.313,73.219,2.753,0.203,1.493e7,1846.898,17.586,0.456,0.457,0.371,0.008,0.077,0.063,0.168,3.634e-4,0,0,0,0,0.005,0.009,5.12,132.83,88.659,0.003,1.903,14.714,1008.093,340.216,0.05,0.14
1.451,47.491,71.762,57.177,71.763,57.201,0.033,2.596e-6,0.033,0.004,0.368,1.661,28.61,-80.6,9.792,0.377,2.955e-7,3.073,-5.16E-04,2.733e4,5526.243,23.458,0.061,87.48,73.138,2.801,0.211,1.554e7,1849.998,19.074,0.457,0.457,0.371,0.009,0.077,0.049,0.132,3.403e-4,0,0,0,0,0.005,0.009,5.12,132.83,88.508,0.003,1.973,14.691,1007.68,340.202,0.05,0.143
1.501,51.151,74.629,57.359,74.63,57.39,0.054,3.871e-6,0.054,0.004,0.457,1.887,28.61,-80.6,9.792,0.166,0,3.137,-0.001,2.728e4,5472.956,23.395,0.061,87.812,73.056,2.882,0.219,1.616e7,1853.099,20.623,0.457,0.457,0.371,0.009,0.077,0.021,0.057,3.46e-5,0,0,0,0,0.004,0.01,5.12,132.83,88.352,0.003,1.906,14.668,1007.251,340.187,0.05,0.146
1.551,54.954,77.503,57.521,77.505,57.559,0.079,5.516e-6,0.079,0.004,0.557,2.095,28.61,-80.6,9.792,0.073,4.538e-7,3.166,-0.003,2.722e4,5419.638,23.333,0.061,87.967,72.973,2.929,0.228,1.677e7,1855.721,22.247,0.457,0.457,0.371,0.009,0.077,0.009,0.023,-3.67E-04,0,0,0,0,0.004,0.01,5.12,132.83,88.195,0.003,1.985,14.643,1006.805,340.172,0.05,0.149
1.601,58.901,80.379,57.548,80.382,57.594,0.11,7.576e-6,0.11,0.004,0.667,2.307,28.61,-80.6,9.792,0.037,0,-3.169,-0.006,2.717e4,5366.28,23.27,0.061,88.036,72.891,2.958,0.236,1.739e7,1854.73,23.935,0.457,0.457,0.371,0.009,0.078,0.005,0.017,1.352e-4,0,0,0,0,-0.004,0.01,5.12,132.83,88.036,0.003,2.037,14.617,1006.342,340.157,0.05,0.151
1.651,62.992,83.255,57.544,83.258,57.599,0.146,1.009e-5,0.146,0.004,0.788,2.532,28.61,-80.6,9.792,0.184,-5.27E-07,-3.129,-8.02E-04,2.712e4,5312.922,23.207,0.061,87.817,72.808,2.932,0.245,1.801e7,1852.995,25.686,0.458,0.458,0.371,0.009,0.078,0.023,0.072,1.094e-4,0,0,0,0,-0.003,0.011,5.12,132.83,87.879,0.003,2.028,14.591,1005.862,340.141,0.05,0.153
1.701,67.227,86.13,57.537,86.135,57.602,0.189,1.31e-5,0.189,0.004,0.92,2.75,28.61,-80.6,9.792,0.299,4.889e-7,-3.042,-6.78E-04,2.706e4,5259.565,23.144,0.061,87.653,72.724,2.916,0.253,1.862e7,1851.26,27.503,0.458,0.458,0.371,0.009,0.078,0.038,0.115,7.288e-5,0,0,0,0,-0.003,0.011,5.12,132.83,87.724,0.003,2.053,14.563,1005.365,340.124,0.05,0.155
1.751,71.605,89.006,57.538,89.012,57.615,0.238,1.666e-5,0.238,0.004,1.063,2.973,28.61,-80.6,9.792,0.434,-4.59E-07,-2.9,-5.21E-05,2.701e4,5206.314,23.081,0.061,87.462,72.641,2.895,0.262,1.924e7,1849.859,29.386,0.458,0.458,0.37,0.009,0.079,0.056,0.166,4.431e-5,0,0,0,0,-0.003,0.011,5.12,132.83,87.575,0.003,2.03,14.535,1004.852,340.107,0.05,0.156
1.801,76.127,91.882,57.562,91.89,57.649,0.295,2.083e-5,0.295,0.004,1.216,3.17,28.61,-80.6,9.792,0.499,0,-2.71,-5.24E-04,2.696e4,5153.085,23.017,0.061,87.379,72.557,2.895,0.27,1.986e7,1849.088,31.332,0.458,0.459,0.37,0.009,0.079,0.065,0.191,9.592e-5,0,0,0,0,-0.002,0.012,5.12,132.83,87.435,0.003,2.098,14.505,1004.322,340.089,0.05,0.158
1.851,80.793,94.76,57.58,94.77,57.681,0.36,2.565e-5,0.36,0.004,1.381,3.411,28.61,-80.6,9.792,0.709,-3.02E-07,-2.445,-4.40E-04,2.69e4,5099.857,22.953,0.061,87.087,72.473,2.854,0.279,2.047e7,1848.333,33.356,0.459,0.459,0.37,0.009,0.079,0.094,0.27,-3.16E-05,0,0,0,0,-0.002,0.012,5.12,132.83,87.306,0.003,1.904,14.475,1003.774,340.071,0.05,0.159
1.901,85.603,97.639,57.595,97.651,57.707,0.433,3.112e-5,0.433,0.004,1.556,3.59,28.61,-80.6,9.792,0.777,4.635e-7,-2.1,-9.62E-04,2.685e4,5046.696,22.889,0.061,87.003,72.388,2.854,0.287,2.108e7,1847.471,35.434,0.459,0.46,0.37,0.009,0.08,0.104,0.296,6.538e-5,0,0,0,0,-0.001,0.013,5.12,132.83,87.192,0.002,1.906,14.444,1003.21,340.052,0.05,0.16
1.951,90.557,100.513,57.504,100.528,57.624,0.516,3.72e-5,0.516,0.004,1.738,3.705,28.61,-80.6,9.792,0.75,3.843e-7,-1.722,-0.001,2.68e4,4993.765,22.825,0.061,87.055,72.304,2.881,0.296,2.17e7,1843.762,37.562,0.459,0.46,0.37,0.01,0.08,0.1,0.288,3.93e-4,0,0,0,0,-7.21E-04,0.013,5.12,132.83,87.096,0.001,2.041,14.411,1002.629,340.032,0.05,0.162
2.001,95.654,103.38,57.364,103.398,57.49,0.607,4.378e-5,0.607,0.004,1.926,3.804,28.61,-80.6,9.792,0.748,-5.66E-07,-1.325,-1.22E-04,2.675e4,4940.833,22.761,0.061,87.073,72.219,2.901,0.304,2.231e7,1838.785,39.75,0.46,0.461,0.369,0.01,0.081,0.099,0.289,2.63e-4,0,0,0,0,-4.04E-04,0.013,5.12,132.83,87.02,7.044e-4,2.104,14.378,1002.031,340.012,0.05,0.164
2.051,100.895,106.24,57.219,106.261,57.354,0.708,5.076e-5,0.708,0.004,2.119,3.928,28.61,-80.6,9.792,0.848,-3.57E-07,-0.874,4.069e-5,2.669e4,4887.902,22.697,0.061,86.946,72.134,2.893,0.313,2.292e7,1833.809,42.008,0.46,0.461,0.369,0.01,0.081,0.114,0.329,-1.77E-04,0,0,0,0,-1.66E-04,0.014,5.12,132.83,86.965,1.203e-4,1.938,14.344,1001.417,339.991,0.05,0.165
2.101,106.278,109.093,57.077,109.117,57.213,0.819,5.804e-5,0.819,0.004,2.316,3.948,28.61,-80.6,9.792,0.788,0,-0.384,-1.96E-04,2.664e4,4835.299,22.632,0.061,87.046,72.049,2.929,0.321,2.352e7,1828.802,44.299,0.461,0.461,0.369,0.01,0.081,0.105,0.308,-2.66E-04,0,0,0,0,-3.04E-05,0.014,5.12,132.83,86.934,-4.56E-04,2.025,14.309,1000.785,339.97,0.05,0.166
2.151,111.804,111.938,56.926,111.966,57.064,0.94,6.552e-5,0.94,0.004,2.514,3.971,28.61,-80.6,9.792,0.793,0,0.122,-2.52E-04,2.659e4,4782.891,22.568,0.061,87.054,71.964,2.947,0.33,2.413e7,1823.681,46.654,0.461,0.462,0.369,0.01,0.082,0.106,0.312,-4.44E-04,0,0,0,0,2.934e-6,0.014,5.12,132.83,86.927,-0.001,1.943,14.273,1000.137,339.949,0.05,0.167
2.201,117.472,114.776,56.776,114.808,56.912,1.071,7.309e-5,1.071,0.004,2.712,3.936,28.61,-80.6,9.792,0.747,-4.73E-07,0.646,-0.001,2.654e4,4730.484,22.504,0.06,87.134,71.879,2.98,0.338,2.473e7,1818.55,49.056,0.461,0.462,0.369,0.01,0.082,0.1,0.297,-3.36E-04,0,0,0,0,7.772e-5,0.015,5.12,132.83,86.946,-0.002,1.911,14.236,999.473,339.926,0.05,0.168
2.251,123.281,117.606,56.625,117.642,56.757,1.211,8.065e-5,1.211,0.004,2.907,3.869,28.61,-80.6,9.792,0.703,3.285e-7,1.168,-1.68E-04,2.648e4,4678.093,22.439,0.06,87.214,71.794,3.012,0.346,2.533e7,1813.419,51.51,0.462,0.462,0.368,0.01,0.083,0.093,0.281,-2.38E-04,0,0,0,0,2.424e-4,0.015,5.12,132.83,86.992,-0.002,1.828,14.199,998.791,339.903,0.05,0.17
2.301,129.232,120.426,56.431,120.466,56.555,1.361,8.812e-5,1.361,0.004,3.097,3.756,28.61,-80.6,9.792,0.639,0,1.681,-0.001,2.643e4,4626.327,22.375,0.06,87.324,71.709,3.05,0.355,2.592e7,1807.18,54.012,0.462,0.463,0.368,0.011,0.083,0.085,0.257,2.956e-4,0,0,0,0,4.787e-4,0.015,5.12,132.83,87.063,-0.003,1.737,14.16,998.093,339.88,0.05,0.171
2.351,135.324,123.235,56.199,123.279,56.313,1.521,9.543e-5,1.521,0.004,3.28,3.58,28.61,-80.6,9.792,0.527,-8.17E-07,2.152,-0.002,2.638e4,4574.56,22.31,0.06,87.504,71.624,3.102,0.363,2.652e7,1799.938,56.557,0.462,0.463,0.368,0.011,0.084,0.069,0.214,3.567e-4,0,0,0,0,7.486e-4,0.016,5.12,132.83,87.159,-0.003,1.7,14.12,997.379,339.856,0.05,0.172
2.401,141.555,126.032,55.965,126.08,56.067,1.689,1.025e-4,1.689,0.003,3.454,3.379,28.61,-80.6,9.792,0.422,0,2.558,-0.002,2.633e4,4522.794,22.245,0.06,87.677,71.538,3.152,0.371,2.71e7,1792.695,59.153,0.463,0.463,0.368,0.011,0.084,0.055,0.173,-1.29E-04,0,0,0,0,0.001,0.016,5.12,132.83,87.277,-0.004,1.61,14.08,996.648,339.831,0.05,0.173
2.451,147.927,128.818,55.727,128.869,55.813,1.866,1.093e-4,1.866,0.003,3.615,3.085,28.61,-80.6,9.792,0.216,-9.67E-07,2.842,-0.003,2.628e4,4471.375,22.181,0.06,88.009,71.453,3.234,0.379,2.769e7,1785.338,61.797,0.463,0.463,0.368,0.011,0.085,0.028,0.089,1.508e-4,0,0,0,0,0.001,0.017,5.12,132.83,87.413,-0.004,1.721,14.038,995.901,339.806,0.05,0.174
2.501,154.437,131.589,55.448,131.643,55.518,2.05,1.158e-4,2.05,0.003,3.762,2.799,28.61,-80.6,9.792,0.05,0,2.965,-0.013,2.623e4,4420.426,22.117,0.06,88.287,71.368,3.304,0.388,2.827e7,1777.036,64.498,0.464,0.464,0.367,0.011,0.085,0.006,0.02,1.208e-4,0,0,0,0,0.001,0.017,5.12,132.83,87.559,-0.004,1.734,13.996,995.137,339.781,0.05,0.175
2.551,161.085,134.346,55.155,134.403,55.213,2.242,1.221e-4,2.242,0.003,3.895,2.543,28.61,-80.6,9.792,0.058,1.176e-6,-2.96,-0.011,2.617e4,4369.476,22.052,0.06,88.292,71.283,3.322,0.396,2.885e7,1768.525,67.247,0.464,0.464,0.367,0.011,0.086,0.007,0.026,-2.10E-04,0,0,0,0,-0.001,0.017,5.12,132.83,87.707,-0.003,1.621,13.953,994.357,339.754,0.05,0.176
2.601,167.871,137.089,54.86,137.147,54.905,2.44,1.284e-4,2.44,0.003,4.014,2.238,28.61,-80.6,9.792,0.229,-1.03E-06,-2.802,-0.002,2.612e4,4318.526,21.987,0.06,88.044,71.198,3.29,0.404,2.942e7,1760.013,70.056,0.465,0.465,0.367,0.012,0.086,0.03,0.098,-2.21E-04,0,0,0,0,-0.001,0.018,5.12,132.83,87.852,-0.002,1.678,13.909,993.562,339.728,0.05,0.178
2.651,174.794,139.816,54.57,139.877,54.604,2.643,1.35e-4,2.643,0.003,4.118,1.936,28.61,-80.6,9.792,0.398,1.969e-6,-2.449,-0.003,2.607e4,4268.266,21.923,0.06,87.806,71.113,3.26,0.412,2.999e7,1751.81,72.923,0.465,0.465,0.367,0.012,0.087,0.052,0.17,-2.20E-05,0,0,0,0,-7.54E-04,0.018,5.12,132.83,87.984,-0.001,1.777,13.864,992.75,339.7,0.05,0.18
2.701,181.852,142.531,54.296,142.593,54.324,2.851,1.419e-4,2.851,0.003,4.209,1.718,28.61,-80.6,9.792,0.483,2.436e-6,-1.934,-0.003,2.602e4,4218.151,21.859,0.06,87.697,71.028,3.256,0.42,3.056e7,1744.194,75.821,0.466,0.466,0.366,0.012,0.087,0.064,0.207,-3.60E-04,0,0,0,0,-4.52E-04,0.018,5.12,132.83,88.094,8.097e-5,1.739,13.818,991.922,339.673,0.05,0.182
2.751,189.046,145.231,54.019,145.295,54.041,3.064,1.495e-4,3.064,0.003,4.29,1.532,28.61,-80.6,9.792,0.561,0,-1.294,9.449e-5,2.597e4,4168.037,21.795,0.06,87.602,70.943,3.254,0.428,3.112e7,1736.591,78.766,0.466,0.466,0.366,0.012,0.088,0.074,0.242,4.868e-4,0,0,0,0,-1.95E-04,0.019,5.12,132.83,88.175,4.067e-4,1.762,13.771,991.078,339.644,0.05,0.183
2.801,196.375,147.918,53.734,147.982,53.753,3.28,1.577e-4,3.28,0.003,4.363,1.413,28.61,-80.6,9.792,0.604,0,-0.548,-5.62E-04,2.592e4,4118.133,21.731,0.06,87.559,70.858,3.262,0.436,3.168e7,1728.918,81.747,0.466,0.467,0.366,0.012,0.088,0.08,0.261,-3.58E-04,0,0,0,0,-3.38E-05,0.019,5.12,132.83,88.221,8.263e-4,1.792,13.724,990.218,339.615,0.05,0.185
2.851,203.838,150.586,53.371,150.652,53.389,3.5,1.666e-4,3.5,0.003,4.432,1.37,28.61,-80.6,9.792,0.605,-2.99E-07,0.258,1.908e-4,2.587e4,4068.954,21.667,0.06,87.577,70.774,3.282,0.444,3.223e7,1719.366,84.751,0.467,0.468,0.366,0.013,0.089,0.08,0.264,4.49e-4,0,0,0,0,7.187e-6,0.019,5.12,132.83,88.229,0.002,1.819,13.675,989.343,339.586,0.05,0.187
2.901,211.433,153.235,52.971,153.301,52.989,3.723,1.765e-4,3.723,0.003,4.5,1.387,28.61,-80.6,9.792,0.592,4.72e-7,1.098,-6.13E-04,2.582e4,4019.775,21.603,0.06,87.617,70.69,3.306,0.452,3.278e7,1708.976,87.786,0.467,0.468,0.365,0.013,0.089,0.079,0.26,4.994e-4,0,0,0,0,1.26e-4,0.02,5.12,132.83,88.195,0.002,1.917,13.626,988.452,339.556,0.05,0.189
2.951,219.161,155.863,52.566,155.93,52.588,3.95,1.872e-4,3.95,0.003,4.572,1.535,28.61,-80.6,9.792,0.495,0,1.892,-0.001,2.578e4,3970.596,21.539,0.06,87.78,70.605,3.355,0.459,3.332e7,1698.587,90.822,0.468,0.468,0.365,0.013,0.09,0.065,0.219,4.377e-4,0,0,0,0,3.619e-4,0.02,5.12,132.83,88.119,0.003,1.894,13.575,987.546,339.526,0.05,0.19
3.001,227.019,158.47,52.133,158.539,52.163,4.181,1.992e-4,4.181,0.003,4.654,1.764,28.61,-80.6,9.792,0.362,-1.41E-06,2.542,-0.002,2.573e4,3922.16,21.476,0.059,88.001,70.521,3.414,0.467,3.386e7,1687.687,93.882,0.468,0.469,0.365,0.013,0.091,0.047,0.161,3.534e-4,0,0,0,0,6.321e-4,0.02,5.12,132.83,88.007,0.005,1.861,13.524,986.624,339.495,0.05,0.192
3.051,235.007,161.051,51.614,161.121,51.655,4.416,2.127e-4,4.416,0.003,4.749,2.055,28.61,-80.6,9.791,0.201,1.647e-6,2.988,-0.003,2.568e4,3874.209,21.413,0.059,88.27,70.438,3.483,0.475,3.439e7,1674.725,96.967,0.469,0.469,0.365,0.013,0.091,0.026,0.089,-1.69E-04,0,0,0,0,8.452e-4,0.021,5.12,132.83,87.868,0.006,1.81,13.472,985.688,339.463,0.05,0.193
3.101,243.123,163.606,51.081,163.678,51.136,4.656,2.279e-4,4.656,0.003,4.859,2.357,28.61,-80.6,9.791,0.05,2.65e-6,3.19,-0.016,2.563e4,3826.258,21.349,0.059,88.53,70.354,3.55,0.482,3.491e7,1661.546,100.089,0.47,0.47,0.364,0.014,0.092,0.006,0.022,-2.79E-05,0,0,0,0,9.336e-4,0.021,5.12,132.83,87.712,0.008,1.816,13.42,984.736,339.431,0.05,0.194
3.151,251.367,166.134,50.546,166.208,50.613,4.902,2.454e-4,4.902,0.003,4.983,2.611,28.61,-80.6,9.791,0.049,3.324e-7,-3.19,-0.015,2.558e4,3778.307,21.286,0.059,88.553,70.27,3.571,0.49,3.543e7,1648.366,103.249,0.47,0.47,0.364,0.014,0.092,0.006,0.023,-3.97E-05,0,0,0,0,-9.05E-04,0.021,5.12,132.83,87.552,0.009,1.976,13.366,983.769,339.399,0.05,0.195
3.201,259.736,168.631,49.934,168.709,50.02,5.154,2.655e-4,5.154,0.003,5.121,2.937,28.61,-80.6,9.791,0.213,-3.38E-06,-2.946,-0.001,2.554e4,3731.884,21.224,0.059,88.316,70.189,3.54,0.497,3.594e7,1633.497,106.423,0.471,0.471,0.364,0.014,0.093,0.028,0.099,-2.24E-05,0,0,0,0,-7.50E-04,0.022,5.12,132.83,87.397,0.011,1.911,13.312,982.787,339.366,0.05,0.196
3.251,268.229,171.095,49.252,171.176,49.353,5.414,2.888e-4,5.414,0.003,5.273,3.169,28.61,-80.6,9.791,0.308,2.299e-6,-2.456,-0.004,2.549e4,3685.483,21.163,0.059,88.192,70.107,3.532,0.505,3.644e7,1616.833,109.612,0.471,0.471,0.363,0.014,0.093,0.04,0.143,-4.53E-04,0,0,0,0,-5.06E-04,0.022,5.12,132.83,87.262,0.012,1.986,13.257,981.791,339.332,0.05,0.197
3.301,276.845,173.524,48.566,173.609,48.685,5.682,3.156e-4,5.682,0.003,5.437,3.402,28.61,-80.6,9.791,0.424,-1.07E-06,-1.741,4.639e-4,2.544e4,3639.083,21.101,0.059,88.038,70.025,3.518,0.512,3.693e7,1600.169,112.808,0.472,0.472,0.363,0.014,0.094,0.056,0.197,-3.89E-04,0,0,0,0,-2.47E-04,0.022,5.12,132.83,87.156,0.013,1.893,13.201,980.781,339.298,0.05,0.199
3.351,285.581,175.918,47.873,176.008,48.003,5.958,3.463e-4,5.958,0.003,5.61,3.537,28.61,-80.6,9.791,0.491,1.143e-6,-0.819,-0.002,2.54e4,3593.406,21.039,0.059,87.96,69.944,3.519,0.519,3.741e7,1583.296,115.998,0.472,0.473,0.363,0.015,0.095,0.065,0.229,-8.01E-05,0,0,0,0,-5.32E-05,0.023,5.12,132.83,87.091,0.013,1.815,13.144,979.756,339.264,0.05,0.2
3.401,294.436,178.274,47.099,178.368,47.234,6.243,3.811e-4,6.243,0.003,5.788,3.564,28.61,-80.6,9.791,0.516,0,0.231,-1.49E-04,2.535e4,3548.885,20.979,0.059,87.946,69.865,3.532,0.526,3.789e7,1564.341,119.166,0.473,0.473,0.363,0.015,0.095,0.069,0.243,-4.66E-04,0,0,0,0,4.115e-6,0.023,5.12,132.83,87.077,0.013,1.706,13.086,978.718,339.229,0.05,0.201
3.451,303.407,180.59,46.313,180.688,46.438,6.537,4.198e-4,6.537,0.004,5.961,3.403,28.61,-80.6,9.791,0.442,1.104e-6,1.261,1.201e-4,2.531e4,3504.364,20.919,0.059,88.079,69.785,3.573,0.533,3.835e7,1544.851,122.296,0.473,0.474,0.362,0.015,0.096,0.059,0.21,-4.78E-04,0,0,0,0,1.197e-4,0.023,5.12,132.83,87.115,0.011,1.743,13.028,977.665,339.194,0.05,0.202
3.501,312.494,182.867,45.53,182.969,45.639,6.839,4.62e-4,6.839,0.004,6.125,3.144,28.61,-80.6,9.791,0.335,-3.65E-06,2.13,-0.003,2.526e4,3459.843,20.859,0.059,88.265,69.705,3.625,0.54,3.881e7,1525.361,125.404,0.474,0.474,0.362,0.015,0.096,0.044,0.16,1.598e-4,0,0,0,0,3.331e-4,0.023,5.12,132.83,87.201,0.009,1.745,12.969,976.6,339.158,0.05,0.204
3.551,321.693,185.103,44.716,185.209,44.8,7.149,5.07e-4,7.149,0.004,6.271,2.751,28.61,-80.6,9.791,0.161,0,2.698,2.796e-4,2.522e4,3416.976,20.8,0.059,88.559,69.628,3.697,0.546,3.926e7,1505.065,128.498,0.474,0.474,0.362,0.016,0.097,0.021,0.077,1.994e-4,0,0,0,0,5.215e-4,0.024,5.12,132.83,87.324,0.007,1.863,12.909,975.521,339.122,0.05,0.205
3.601,331.003,187.294,43.823,187.404,43.885,7.466,5.541e-4,7.466,0.004,6.397,2.345,28.61,-80.6,9.791,0.004,-1.44E-06,-2.882,-0.03,2.518e4,3374.617,20.743,0.059,88.833,69.552,3.766,0.553,3.969e7,1482.896,131.583,0.475,0.475,0.362,0.016,0.097,5.526e-4,0.003,2.77e-5,0,0,0,0,-5.81E-04,0.024,5.12,132.83,87.465,0.005,1.913,12.848,974.429,339.085,0.05,0.207
3.651,340.421,189.441,42.92,189.552,42.966,7.788,6.025e-4,7.788,0.004,6.504,1.989,28.61,-80.6,9.791,0.131,-1.22E-06,-2.708,-0.002,2.514e4,3332.258,20.685,0.059,88.655,69.475,3.746,0.559,4.012e7,1460.652,134.649,0.475,0.475,0.361,0.016,0.098,0.017,0.064,-2.23E-04,0,0,0,0,-5.02E-04,0.024,5.12,132.83,87.606,0.003,1.852,12.787,973.324,339.048,0.05,0.208
3.701,349.946,191.542,42.014,191.656,42.048,8.116,6.517e-4,8.116,0.005,6.595,1.698,28.61,-80.6,9.791,0.219,1.41e-6,-2.259,-0.004,2.51e4,3290.298,20.627,0.059,88.54,69.399,3.739,0.566,4.053e7,1438.453,137.684,0.476,0.476,0.361,0.016,0.099,0.029,0.108,-2.94E-04,0,0,0,0,-3.42E-04,0.025,5.12,132.83,87.731,0.002,1.731,12.725,972.207,339.01,0.05,0.209
3.751,359.574,193.601,41.169,193.716,41.194,8.447,7.015e-4,8.447,0.005,6.672,1.439,28.61,-80.6,9.791,0.303,-8.84E-07,-1.573,-7.08E-04,2.506e4,3250.099,20.572,0.059,88.435,69.325,3.732,0.572,4.093e7,1418.011,140.701,0.477,0.477,0.361,0.017,0.099,0.04,0.149,4.185e-4,0,0,0,0,-1.62E-04,0.025,5.12,132.83,87.828,0.002,1.7,12.663,971.078,338.973,0.05,0.21
3.801,369.305,195.62,40.354,195.736,40.376,8.783,7.519e-4,8.783,0.005,6.74,1.321,28.61,-80.6,9.791,0.318,1.773e-6,-0.736,-0.004,2.501e4,3209.899,20.516,0.059,88.436,69.252,3.747,0.578,4.133e7,1398.464,143.667,0.477,0.477,0.36,0.017,0.1,0.042,0.157,-2.67E-04,0,0,0,0,-3.48E-05,0.025,5.12,132.83,87.886,0.004,1.572,12.6,969.937,338.934,0.05,0.212
3.851,379.135,197.598,39.536,197.715,39.556,9.121,8.032e-4,9.121,0.005,6.803,1.259,28.61,-80.6,9.791,0.324,0,0.155,-0.001,2.497e4,3169.7,20.46,0.059,88.452,69.178,3.764,0.584,4.171e7,1378.917,146.607,0.478,0.478,0.36,0.017,0.1,0.043,0.161,2.727e-4,0,0,0,0,1.507e-6,0.025,5.12,132.83,87.9,0.006,1.563,12.536,968.784,338.895,0.05,0.213
3.901,389.063,199.529,38.605,199.647,38.627,9.463,8.558e-4,9.463,0.005,6.866,1.306,28.61,-80.6,9.791,0.284,7.136e-7,1.017,-0.002,2.494e4,3131.158,20.407,0.059,88.537,69.107,3.795,0.589,4.209e7,1356.737,149.492,0.478,0.478,0.36,0.017,0.101,0.037,0.142,9.216e-5,0,0,0,0,6.377e-5,0.026,5.12,132.83,87.87,0.008,1.547,12.471,967.619,338.856,0.05,0.214
3.951,399.087,201.391,37.212,201.51,37.238,9.808,9.101e-4,9.808,0.005,6.932,1.391,28.61,-80.6,9.791,0.232,9.588e-7,1.77,-0.004,2.49e4,3093.792,20.354,0.058,88.641,69.038,3.829,0.595,4.244e7,1323.127,152.299,0.479,0.479,0.36,0.018,0.101,0.03,0.116,-9.64E-05,0,0,0,0,1.897e-4,0.026,5.12,132.83,87.799,0.01,1.625,12.406,966.444,338.817,0.05,0.215
4.001,409.201,203.18,35.761,203.301,35.795,10.156,9.667e-4,10.156,0.005,7.004,1.544,28.61,-80.6,9.791,0.155,3.438e-6,2.353,-0.003,2.486e4,3056.426,20.302,0.058,88.785,68.969,3.87,0.6,4.279e7,1288.192,155.017,0.479,0.479,0.359,0.018,0.102,0.02,0.078,-2.76E-04,0,0,0,0,3.292e-4,0.026,5.12,132.83,87.694,0.012,1.725,12.34,965.258,338.777,0.05,0.217
4.051,419.403,204.897,34.305,205.019,34.353,10.509,0.001,10.509,0.006,7.086,1.811,28.61,-80.6,9.791,0.02,4.024e-6,2.614,-0.031,2.482e4,3019.06,20.25,0.058,89.023,68.899,3.93,0.605,4.311e7,1253.256,157.635,0.48,0.48,0.359,0.018,0.102,0.003,0.009,6.21e-6,0,0,0,0,3.998e-4,0.026,5.12,132.83,87.568,0.013,1.681,12.274,964.061,338.737,0.05,0.218
4.101,429.685,206.413,30.282,206.537,30.341,10.865,0.001,10.865,0.006,7.175,1.903,28.61,-80.6,9.791,0.079,-6.02E-07,-2.52,-0.005,2.48e4,2991.972,20.212,0.058,88.95,68.849,3.926,0.61,4.34e7,1154.814,159.969,0.48,0.48,0.359,0.018,0.103,0.01,0.041,-4.29E-04,0,0,0,0,-3.66E-04,0.026,5.12,132.83,87.438,0.012,1.771,12.207,962.855,338.696,0.05,0.219
4.151,440.035,207.58,23.336,207.707,23.406,11.226,0.001,11.226,0.006,7.26,1.8,28.61,-80.6,9.791,0.155,1.725e-6,-2.14,-0.003,2.477e4,2965.256,20.174,0.058,88.844,68.799,3.915,0.614,4.361e7,983.568,161.754,0.48,0.48,0.359,0.018,0.103,0.02,0.08,-9.22E-05,0,0,0,0,-2.61E-04,0.027,5.12,132.83,87.321,0.011,1.884,12.14,961.641,338.656,0.05,0.221
4.201,450.435,208.401,16.398,208.53,16.481,11.591,0.001,11.591,0.006,7.339,1.651,28.61,-80.6,9.791,0.227,2.433e-6,-1.517,-0.004,2.474e4,2938.541,20.136,0.058,88.743,68.749,3.905,0.616,4.374e7,812.239,162.969,0.481,0.481,0.359,0.019,0.103,0.03,0.117,-3.41E-04,0,0,0,0,-1.30E-04,0.027,5.12,132.83,87.229,0.01,1.917,12.072,960.422,338.615,0.05,0.222
4.251,460.867,208.877,9.503,209.008,9.609,11.959,0.001,11.959,0.006,7.408,1.427,28.61,-80.6,9.791,0.275,1.21e-6,-0.689,-0.004,2.472e4,2918.432,20.108,0.058,88.674,68.711,3.899,0.618,4.381e7,641.823,163.608,0.481,0.481,0.359,0.019,0.104,0.036,0.142,3.541e-4,0,0,0,0,-2.68E-05,0.027,5.12,132.83,87.173,0.008,1.897,12.004,959.198,338.574,0.05,0.224
4.301,471.314,209.026,2.987,209.159,3.186,12.331,0.001,12.331,0.006,7.464,1.11,28.61,-80.6,9.791,0.276,0,0.218,-0.005,2.471e4,2908.878,20.094,0.058,88.675,68.693,3.903,0.618,4.38e7,480.497,163.692,0.481,0.481,0.359,0.019,0.104,0.037,0.142,-2.87E-04,0,0,0,0,2.67e-6,0.027,5.12,132.83,87.162,0.005,1.887,11.936,957.973,338.532,0.05,0.225
4.351,481.761,208.855,-3.414,208.989,3.491,12.705,0.001,12.705,0.006,7.502,0.729,28.61,-80.6,9.791,0.244,1.218e-6,1.08,-0.002,2.47e4,2899.324,20.081,0.058,88.723,68.675,3.916,0.618,4.373e7,321.504,163.23,0.481,0.481,0.359,0.019,0.104,0.032,0.127,8.038e-5,0,0,0,0,6.562e-5,0.027,5.12,132.83,87.195,0.002,1.837,11.869,956.747,338.491,0.05,0.227
4.401,492.192,208.364,-9.795,208.499,9.799,13.081,0.002,13.081,0.007,7.52,0.275,28.61,-80.6,9.791,0.168,-8.55E-07,1.757,-0.007,2.469e4,2889.77,20.067,0.058,88.836,68.657,3.941,0.616,4.359e7,162.511,162.235,0.481,0.481,0.359,0.019,0.103,0.022,0.087,-1.90E-04,0,0,0,0,1.745e-4,0.027,5.12,132.83,87.268,-3.24E-04,1.813,11.801,955.524,338.45,0.05,0.229
4.451,502.592,207.637,-14.509,207.773,14.51,13.457,0.002,13.457,0.007,7.518,0.122,28.61,-80.6,9.791,0.069,0,2.143,-0.01,2.469e4,2886.878,20.063,0.058,88.984,68.652,3.971,0.614,4.34e7,44.384,160.86,0.48,0.48,0.359,0.018,0.103,0.009,0.035,-3.32E-04,0,0,0,0,2.616e-4,0.027,5.12,132.83,87.367,-3.70E-04,1.784,11.733,954.319,338.409,0.05,0.231
4.501,512.955,206.879,-15.112,207.015,15.116,13.833,0.002,13.833,0.007,7.505,0.353,28.61,-80.6,9.791,0.053,3.512e-6,-2.165,-0.018,2.469e4,2886.266,20.062,0.058,89,68.651,3.974,0.612,4.321e7,27.864,159.465,0.48,0.48,0.359,0.018,0.103,0.007,0.028,-4.36E-04,0,0,0,0,-2.69E-04,0.027,5.12,132.83,87.477,0.002,1.808,11.666,953.161,338.368,0.05,0.232
4.551,523.279,206.102,-15.521,206.237,15.533,14.207,0.002,14.207,0.007,7.48,0.605,28.61,-80.6,9.791,0.192,3.959e-6,-1.771,-0.008,2.469e4,2885.655,20.061,0.058,88.769,68.65,3.93,0.61,4.301e7,16.132,158.07,0.48,0.48,0.359,0.018,0.103,0.025,0.099,1.864e-4,0,0,0,0,-1.81E-04,0.026,5.12,132.83,87.577,0.006,1.939,11.599,952.007,338.328,0.05,0.233
4.595,532.281,205.404,-15.911,205.539,15.928,14.534,0.002,14.534,0.007,7.45,0.729,28.61,-80.6,9.791,0.258,2.476e-6,-1.144,-0.005,2.469e4,2885.12,20.06,0.058,88.657,68.649,3.908,0.608,4.284e7,5.133,156.82,0.48,0.48,0.359,0.018,0.103,0.034,0.133,3.483e-4,0,0,0,0,-7.62E-05,0.026,5.12,132.83,87.641,0.01,1.94,11.54,951.002,338.292,0.044,0.234
4.645,542.531,204.6,-16.059,204.734,16.078,14.905,0.002,14.905,0.007,7.412,0.787,28.61,-80.6,9.791,0.292,1.305e-6,-0.281,-0.005,2.469e4,2885.12,20.06,0.058,88.595,68.649,3.896,0.606,4.264e7,0,155.38,0.48,0.48,0.359,0.018,0.102,0.039,0.15,1.191e-4,0,0,0,0,-4.63E-06,0.026,5.12,132.83,87.677,0.015,1.934,11.474,949.857,338.252,0.05,0.236
4.695,552.741,203.798,-16.001,203.932,16.02,15.275,0.002,15.275,0.007,7.372,0.785,28.61,-80.6,9.791,0.294,1.022e-6,0.631,-0.002,2.469e4,2885.12,20.06,0.058,88.581,68.649,3.893,0.603,4.244e7,0,153.949,0.479,0.48,0.359,0.018,0.102,0.039,0.151,5.204e-5,0,0,0,0,2.352e-5,0.026,5.12,132.83,87.668,0.02,1.978,11.407,948.716,338.212,0.05,0.238
4.745,562.911,203,-15.946,203.132,15.961,15.643,0.002,15.643,0.007,7.335,0.691,28.61,-80.6,9.79,0.241,3.052e-7,1.463,-0.006,2.469e4,2885.12,20.06,0.058,88.654,68.649,3.907,0.601,4.224e7,0,152.515,0.479,0.479,0.359,0.018,0.102,0.032,0.123,7.666e-5,0,0,0,0,1.275e-4,0.026,5.12,132.83,87.614,0.024,1.976,11.341,947.58,338.172,0.05,0.239
4.795,573.041,202.204,-15.892,202.336,15.904,16.009,0.002,16.009,0.007,7.303,0.6,28.61,-80.6,9.79,0.185,3.232e-6,2.104,-0.008,2.469e4,2885.12,20.06,0.058,88.731,68.649,3.922,0.599,4.204e7,0,151.106,0.479,0.479,0.36,0.018,0.102,0.024,0.094,-1.27E-04,0,0,0,0,2.657e-4,0.026,5.12,132.83,87.524,0.026,2.094,11.275,946.448,338.132,0.05,0.24
4.845,583.131,201.41,-15.845,201.542,15.849,16.373,0.002,16.373,0.008,7.278,0.372,28.61,-80.6,9.79,0.044,4.422e-6,2.459,-0.034,2.469e4,2885.12,20.06,0.058,88.944,68.649,3.964,0.596,4.184e7,0,149.69,0.479,0.479,0.36,0.018,0.101,0.006,0.022,-2.07E-04,0,0,0,0,3.659e-4,0.026,5.12,132.83,87.407,0.025,1.992,11.21,945.32,338.092,0.05,0.241
4.895,593.182,200.619,-15.796,200.751,15.797,16.737,0.002,16.737,0.008,7.264,0.224,28.61,-80.6,9.79,0.053,7.33e-7,-2.433,-0.027,2.469e4,2885.12,20.06,0.058,88.92,68.649,3.959,0.594,4.165e7,0,148.316,0.479,0.479,0.36,0.018,0.101,0.007,0.027,-3.56E-04,0,0,0,0,-3.61E-04,0.026,5.12,132.83,87.283,0.022,2.064,11.144,944.198,338.052,0.05,0.242
4.945,603.193,199.831,-15.753,199.962,15.753,17.1,0.002,17.1,0.008,7.259,0.024,28.61,-80.6,9.79,0.21,-2.47E-06,-2.055,-0.005,2.469e4,2885.12,20.06,0.058,88.662,68.649,3.909,0.592,4.145e7,0,146.955,0.478,0.478,0.36,0.017,0.101,0.028,0.108,-9.26E-05,0,0,0,0,-2.60E-04,0.026,5.12,132.83,87.169,0.018,1.88,11.079,943.079,338.013,0.05,0.243
4.995,613.165,199.044,-15.707,199.177,15.708,17.463,0.002,17.463,0.008,7.264,0.174,28.61,-80.6,9.79,0.307,2.362e-6,-1.279,-0.007,2.469e4,2885.12,20.06,0.058,88.502,68.649,3.878,0.59,4.125e7,0,145.618,0.478,0.478,0.36,0.017,0.101,0.041,0.157,1.963e-4,0,0,0,0,-1.01E-04,0.026,5.12,132.83,87.085,0.014,1.797,11.014,941.965,337.974,0.05,0.244
5.045,623.098,198.26,-15.658,198.393,15.661,17.826,0.003,17.826,0.008,7.276,0.272,28.61,-80.6,9.79,0.369,4.345e-7,-0.302,-0.003,2.469e4,2885.12,20.06,0.058,88.397,68.649,3.857,0.587,4.106e7,0,144.287,0.478,0.478,0.36,0.017,0.101,0.049,0.189,3.354e-5,0,0,0,0,-5.70E-06,0.025,5.12,132.83,87.045,0.01,1.673,10.95,940.855,337.935,0.05,0.245
5.095,632.991,197.478,-15.602,197.613,15.604,18.19,0.003,18.19,0.008,7.289,0.24,28.61,-80.6,9.79,0.351,0,0.746,-0.004,2.469e4,2885.12,20.06,0.058,88.416,68.649,3.861,0.585,4.086e7,0,142.95,0.478,0.478,0.36,0.017,0.1,0.046,0.179,2.55e-4,0,0,0,0,3.502e-5,0.025,5.12,132.83,87.057,0.008,1.65,10.886,939.75,337.896,0.05,0.255
5.145,642.846,196.7,-15.54,196.835,15.54,18.555,0.003,18.555,0.008,7.297,0.086,28.61,-80.6,9.79,0.253,1.264e-6,1.611,-0.006,2.469e4,2885.12,20.06,0.058,88.557,68.649,3.888,0.583,4.067e7,0,141.615,0.477,0.478,0.36,0.017,0.1,0.033,0.129,-3.90E-04,0,0,0,0,1.647e-4,0.025,5.12,132.83,87.118,0.005,1.736,10.822,938.649,337.857,0.05,0.257
5.195,652.661,195.924,-15.479,196.06,15.479,18.92,0.003,18.92,0.009,7.298,0.046,28.61,-80.6,9.79,0.165,8.147e-7,2.191,-0.005,2.469e4,2885.12,20.06,0.058,88.686,68.649,3.914,0.581,4.048e7,0,140.291,0.477,0.477,0.36,0.017,0.1,0.022,0.083,3.74e-4,0,0,0,0,3.071e-4,0.025,5.12,132.83,87.214,0.003,1.673,10.758,937.552,337.818,0.05,0.259
5.245,662.438,195.152,-15.417,195.288,15.419,19.285,0.003,19.285,0.009,7.292,0.22,28.61,-80.6,9.79,0.044,-1.49E-06,2.49,-0.021,2.469e4,2885.12,20.06,0.058,88.868,68.649,3.949,0.578,4.029e7,0,138.988,0.477,0.477,0.36,0.017,0.1,0.006,0.022,3.945e-5,0,0,0,0,3.995e-4,0.025,5.12,132.83,87.333,0.004,1.651,10.694,936.46,337.78,0.05,0.26
5.295,672.177,194.383,-15.357,194.519,15.363,19.649,0.003,19.649,0.009,7.276,0.413,28.61,-80.6,9.79,0.093,3.976e-6,-2.421,-0.014,2.469e4,2885.12,20.06,0.058,88.782,68.649,3.932,0.576,4.01e7,0,137.714,0.477,0.477,0.361,0.017,0.1,0.012,0.048,4.025e-4,0,0,0,0,-3.81E-04,0.025,5.12,132.83,87.458,0.005,1.675,10.631,935.372,337.741,0.05,0.262
5.345,681.876,193.616,-15.298,193.752,15.311,20.012,0.003,20.012,0.009,7.25,0.617,28.61,-80.6,9.79,0.236,-3.99E-07,-1.971,-0.003,2.469e4,2885.12,20.06,0.058,88.549,68.649,3.887,0.574,3.992e7,0,136.474,0.477,0.477,0.361,0.017,0.099,0.031,0.121,-3.89E-04,0,0,0,0,-2.54E-04,0.025,5.12,132.83,87.569,0.008,1.772,10.568,934.288,337.703,0.05,0.263
5.395,691.538,192.853,-15.242,192.988,15.263,20.374,0.003,20.374,0.009,7.214,0.798,28.61,-80.6,9.79,0.361,7.84e-7,-1.16,-0.004,2.469e4,2885.12,20.06,0.058,88.347,68.649,3.847,0.572,3.973e7,0,135.26,0.477,0.477,0.361,0.017,0.099,0.048,0.184,-1.16E-05,0,0,0,0,-8.88E-05,0.025,5.12,132.83,87.649,0.012,1.927,10.505,933.209,337.665,0.05,0.264
5.445,701.162,192.092,-15.191,192.226,15.213,20.733,0.003,20.733,0.009,7.173,0.822,28.61,-80.6,9.79,0.383,5.537e-7,-0.145,-0.005,2.469e4,2885.12,20.06,0.058,88.305,68.649,3.839,0.57,3.954e7,0,134.02,0.476,0.477,0.361,0.017,0.099,0.051,0.195,-2.93E-04,0,0,0,0,-1.39E-06,0.025,5.12,132.83,87.681,0.016,1.894,10.442,932.133,337.627,0.05,0.265
5.495,710.747,191.334,-15.142,191.467,15.163,21.091,0.003,21.091,0.009,7.132,0.796,28.61,-80.6,9.79,0.37,8.534e-7,0.856,-0.003,2.469e4,2885.12,20.06,0.058,88.316,68.649,3.841,0.567,3.936e7,0,132.785,0.476,0.476,0.361,0.016,0.099,0.049,0.188,-3.84E-04,0,0,0,0,4.909e-5,0.025,5.12,132.83,87.663,0.02,1.916,10.38,931.063,337.589,0.05,0.267
5.545,720.295,190.578,-15.095,190.71,15.111,21.447,0.004,21.447,0.009,7.095,0.692,28.61,-80.6,9.79,0.302,2.896e-7,1.745,-0.005,2.469e4,2885.12,20.06,0.058,88.412,68.649,3.86,0.565,3.917e7,0,131.545,0.476,0.476,0.361,0.016,0.099,0.04,0.154,-2.00E-04,0,0,0,0,2.058e-4,0.024,5.12,132.83,87.596,0.021,1.91,10.318,929.996,337.552,0.05,0.269
5.595,729.805,189.824,-15.052,189.956,15.061,21.801,0.004,21.801,0.01,7.064,0.53,28.61,-80.6,9.79,0.19,2.64e-6,2.388,-0.006,2.469e4,2885.12,20.06,0.058,88.577,68.649,3.892,0.563,3.899e7,0,130.311,0.476,0.476,0.361,0.016,0.098,0.025,0.096,-3.20E-04,0,0,0,0,3.886e-4,0.024,5.12,132.83,87.491,0.022,1.88,10.256,928.933,337.514,0.05,0.271
5.645,739.278,189.073,-15.01,189.204,15.014,22.153,0.004,22.153,0.01,7.042,0.365,28.61,-80.6,9.79,0.07,3.517e-6,2.725,-0.015,2.469e4,2885.12,20.06,0.058,88.757,68.649,3.927,0.561,3.88e7,0,129.102,0.476,0.476,0.361,0.016,0.098,0.009,0.035,-2.74E-04,0,0,0,0,5.1e-4,0.024,5.12,132.83,87.362,0.022,1.899,10.195,927.875,337.477,0.05,0.273
5.695,748.713,188.323,-14.969,188.454,14.971,22.505,0.004,22.505,0.01,7.028,0.2,28.61,-80.6,9.79,0.053,5.138e-7,-2.745,-0.017,2.469e4,2885.12,20.06,0.058,88.776,68.649,3.931,0.559,3.862e7,0,127.916,0.475,0.475,0.361,0.016,0.098,0.007,0.028,9.381e-5,0,0,0,0,-5.21E-04,0.024,5.12,132.83,87.223,0.02,1.926,10.133,926.821,337.44,0.05,0.274
5.745,758.11,187.576,-14.93,187.707,14.93,22.856,0.004,22.856,0.01,7.022,0.05,28.61,-80.6,9.79,0.167,2.999e-6,-2.459,-0.007,2.469e4,2885.12,20.06,0.058,88.588,68.649,3.894,0.557,3.844e7,0,126.751,0.475,0.475,0.361,0.016,0.098,0.022,0.085,-2.47E-04,0,0,0,0,-4.22E-04,0.024,5.12,132.83,87.092,0.017,1.955,10.072,925.771,337.403,0.05,0.275
5.795,767.47,186.83,-14.888,186.962,14.889,23.207,0.004,23.207,0.01,7.022,0.043,28.61,-80.6,9.79,0.239,2.171e-6,-1.943,-0.004,2.469e4,2885.12,20.06,0.058,88.467,68.649,3.871,0.554,3.826e7,0,125.603,0.475,0.475,0.361,0.016,0.098,0.031,0.122,-6.85E-05,0,0,0,0,-2.66E-04,0.024,5.12,132.83,86.981,0.014,2.045,10.011,924.725,337.366,0.05,0.277
5.845,776.793,186.087,-14.845,186.219,14.846,23.558,0.004,23.558,0.01,7.026,0.095,28.61,-80.6,9.79,0.281,2.023e-6,-1.291,-0.005,2.469e4,2885.12,20.06,0.058,88.394,68.649,3.857,0.552,3.808e7,0,124.462,0.475,0.475,0.362,0.016,0.097,0.037,0.142,-7.47E-05,0,0,0,0,-1.18E-04,0.024,5.12,132.83,86.9,0.011,2.134,9.951,923.684,337.329,0.05,0.28
5.895,786.079,185.346,-14.803,185.479,14.804,23.91,0.004,23.91,0.01,7.032,0.153,28.61,-80.6,9.79,0.326,1.586e-6,-0.544,-0.004,2.469e4,2885.12,20.06,0.058,88.318,68.649,3.842,0.55,3.79e7,0,123.324,0.475,0.475,0.362,0.016,0.097,0.043,0.165,-3.91E-04,0,0,0,0,-2.11E-05,0.024,5.12,132.83,86.854,0.007,2.096,9.89,922.646,337.293,0.05,0.283
5.945,795.328,184.607,-14.758,184.741,14.759,24.262,0.004,24.262,0.01,7.04,0.177,28.61,-80.6,9.79,0.344,8.704e-7,0.279,-0.001,2.469e4,2885.12,20.06,0.058,88.282,68.649,3.835,0.548,3.772e7,0,122.188,0.475,0.475,0.362,0.016,0.097,0.045,0.174,1.994e-4,0,0,0,0,5.59e-6,0.024,5.12,132.83,86.848,0.006,2.012,9.83,921.613,337.256,0.05,0.284
5.995,804.54,183.87,-14.708,184.005,14.708,24.614,0.005,24.614,0.011,7.048,0.105,28.61,-80.6,9.79,0.292,1.677e-6,1.053,-0.001,2.469e4,2885.12,20.06,0.058,88.354,68.649,3.849,0.546,3.754e7,0,121.053,0.474,0.474,0.362,0.016,0.097,0.038,0.147,9.641e-5,0,0,0,0,8.046e-5,0.024,5.12,132.83,86.882,0.005,2.029,9.77,920.584,337.22,0.05,0.286
6.045,813.715,183.136,-14.656,183.272,14.656,24.966,0.005,24.966,0.011,7.05,0.006,28.61,-80.6,9.79,0.207,-1.67E-06,1.652,-0.005,2.469e4,2885.12,20.06,0.058,88.479,68.649,3.873,0.544,3.737e7,0,119.924,0.474,0.474,0.362,0.016,0.097,0.027,0.104,-1.36E-04,0,0,0,0,1.996e-4,0.023,5.12,132.83,86.951,0.006,2.044,9.711,919.558,337.184,0.05,0.287
6.095,822.853,182.404,-14.603,182.54,14.604,25.319,0.005,25.319,0.011,7.047,0.133,28.61,-80.6,9.79,0.106,1.466e-6,2.022,-0.004,2.469e4,2885.12,20.06,0.058,88.629,68.649,3.902,0.542,3.719e7,0,118.808,0.474,0.474,0.362,0.015,0.097,0.014,0.053,-3.32E-04,0,0,0,0,3.017e-4,0.023,5.12,132.83,87.044,0.007,2.036,9.651,918.537,337.148,0.05,0.289
6.145,831.955,181.676,-14.552,181.812,14.554,25.671,0.005,25.671,0.011,7.037,0.26,28.61,-80.6,9.79,2.69e-4,0,0,0,2.469e4,2885.12,20.06,0.058,88.79,68.649,3.934,0.54,3.701e7,0,117.708,0.474,0.474,0.362,0.015,0.096,3.452e-5,-3.61E-04,-2.59E-04,0,0,0,0,0,0.023,5.12,132.83,87.15,0.01,2.011,9.592,917.521,337.112,0.05,0.29
6.195,841.021,180.949,-14.502,181.085,14.507,26.022,0.005,26.022,0.011,7.02,0.397,28.61,-80.6,9.79,0.115,-5.50E-07,-2.01,-0.002,2.469e4,2885.12,20.06,0.058,88.6,68.649,3.897,0.537,3.684e7,0,116.63,0.474,0.474,0.362,0.015,0.096,0.015,0.058,-3.15E-04,0,0,0,0,-3.03E-04,0.023,5.12,132.83,87.255,0.014,2.022,9.533,916.508,337.076,0.05,0.291
6.245,850.05,180.225,-14.45,180.361,14.463,26.373,0.005,26.373,0.011,6.995,0.601,28.61,-80.6,9.79,0.279,2.035e-6,-1.561,-0.002,2.469e4,2885.12,20.06,0.058,88.336,68.649,3.845,0.535,3.667e7,0,115.593,0.473,0.474,0.362,0.015,0.096,0.037,0.141,-3.20E-04,0,0,0,0,-1.84E-04,0.023,5.12,132.83,87.346,0.017,2.246,9.475,915.499,337.041,0.05,0.292
6.295,859.043,179.504,-14.406,179.639,14.42,26.722,0.005,26.722,0.011,6.964,0.644,28.61,-80.6,9.79,0.32,1.767e-6,-0.859,-6.56E-04,2.469e4,2885.12,20.06,0.058,88.267,68.649,3.832,0.533,3.649e7,0,114.531,0.473,0.473,0.362,0.015,0.096,0.042,0.161,-8.29E-05,0,0,0,0,-5.62E-05,0.023,5.12,132.83,87.406,0.019,2.174,9.416,914.494,337.005,0.05,0.294
6.345,868.001,178.785,-14.362,178.919,14.378,27.069,0.005,27.069,0.011,6.931,0.674,28.61,-80.6,9.79,0.349,1.544e-6,-0.109,-0.001,2.469e4,2885.12,20.06,0.058,88.216,68.649,3.822,0.531,3.632e7,0,113.483,0.473,0.473,0.362,0.015,0.096,0.046,0.175,-1.75E-04,0,0,0,0,-9.15E-07,0.023,5.12,132.83,87.43,0.019,2.185,9.358,913.493,336.97,0.05,0.295
6.395,876.922,178.068,-14.321,178.201,14.335,27.415,0.005,27.415,0.011,6.898,0.622,28.61,-80.6,9.79,0.313,8.949e-7,0.64,-5.31E-04,2.469e4,2885.12,20.06,0.058,88.264,68.649,3.831,0.529,3.615e7,0,112.423,0.473,0.473,0.362,0.015,0.095,0.041,0.157,-1.05E-04,0,0,0,0,3.173e-5,0.023,5.12,132.83,87.416,0.019,2.111,9.3,912.497,336.935,0.05,0.296
6.445,885.807,177.353,-14.282,177.486,14.292,27.759,0.006,27.759,0.011,6.869,0.529,28.61,-80.6,9.789,0.241,1.805e-6,1.253,0.002,2.469e4,2885.12,20.06,0.058,88.367,68.649,3.851,0.527,3.598e7,0,111.367,0.473,0.473,0.363,0.015,0.095,0.031,0.121,1.828e-4,0,0,0,0,1.226e-4,0.023,5.12,132.83,87.368,0.018,2.03,9.242,911.504,336.9,0.05,0.298
6.495,894.657,176.64,-14.242,176.772,14.251,28.102,0.006,28.102,0.012,6.843,0.501,28.61,-80.6,9.789,0.217,5.473e-7,1.751,0.001,2.469e4,2885.12,20.06,0.058,88.397,68.649,3.857,0.525,3.581e7,0,110.345,0.473,0.473,0.363,0.015,0.095,0.028,0.109,-1.99E-04,0,0,0,0,2.41e-4,0.023,5.12,132.83,87.292,0.017,2.181,9.185,910.515,336.865,0.05,0.299
6.545,903.471,175.928,-14.204,176.061,14.21,28.443,0.006,28.443,0.012,6.82,0.412,28.61,-80.6,9.789,0.142,1.302e-6,2.15,0.004,2.469e4,2885.12,20.06,0.058,88.507,68.649,3.879,0.523,3.564e7,0,109.321,0.473,0.473,0.363,0.015,0.095,0.018,0.071,-3.94E-05,0,0,0,0,3.663e-4,0.023,5.12,132.83,87.194,0.014,2.239,9.127,909.53,336.83,0.05,0.3
6.595,912.25,175.219,-14.168,175.351,14.171,28.784,0.006,28.784,0.012,6.802,0.31,28.61,-80.6,9.789,0.054,2.577e-6,2.357,0.01,2.469e4,2885.12,20.06,0.058,88.641,68.649,3.905,0.521,3.547e7,0,108.309,0.472,0.472,0.363,0.015,0.095,0.007,0.027,3.928e-4,0,0,0,0,4.439e-4,0.022,5.12,132.83,87.08,0.012,2.297,9.07,908.55,336.796,0.05,0.302
6.645,920.993,174.512,-14.132,174.644,14.134,29.124,0.006,29.124,0.012,6.789,0.217,28.61,-80.6,9.789,0.03,0,-2.38,0.022,2.469e4,2885.12,20.06,0.058,88.672,68.649,3.911,0.519,3.53e7,0,107.313,0.472,0.472,0.363,0.015,0.095,0.004,0.016,1.999e-4,0,0,0,0,-4.56E-04,0.022,5.12,132.83,86.961,0.01,2.382,9.014,907.573,336.761,0.05,0.303
6.695,929.701,173.806,-14.099,173.938,14.1,29.463,0.006,29.463,0.012,6.782,0.089,28.61,-80.6,9.789,0.144,4.178e-6,-2.2,0.002,2.469e4,2885.12,20.06,0.058,88.485,68.649,3.874,0.517,3.514e7,0,106.326,0.472,0.472,0.363,0.015,0.094,0.019,0.072,4.665e-4,0,0,0,0,-3.93E-04,0.022,5.12,132.83,86.845,0.009,2.356,8.957,906.6,336.727,0.05,0.305
6.745,938.374,173.102,-14.067,173.234,14.067,29.802,0.006,29.802,0.012,6.78,0.037,28.61,-80.6,9.789,0.256,0,-1.778,0.003,2.469e4,2885.12,20.06,0.058,88.304,68.649,3.839,0.515,3.497e7,0,105.352,0.472,0.472,0.363,0.015,0.094,0.033,0.128,1.901e-4,0,0,0,0,-2.59E-04,0.022,5.12,132.83,86.745,0.008,2.285,8.901,905.631,336.693,0.05,0.306
6.795,947.011,172.399,-14.033,172.533,14.034,30.141,0.006,30.141,0.012,6.784,0.114,28.61,-80.6,9.789,0.325,1.183e-6,-1.168,0.003,2.469e4,2885.12,20.06,0.058,88.19,68.649,3.817,0.513,3.48e7,0,104.388,0.472,0.472,0.363,0.015,0.094,0.043,0.163,3.479e-4,0,0,0,0,-1.13E-04,0.022,5.12,132.83,86.671,0.008,2.259,8.844,904.666,336.659,0.05,0.309
6.845,955.614,171.698,-13.995,171.833,13.996,30.48,0.007,30.48,0.012,6.791,0.131,28.61,-80.6,9.789,0.343,1.323e-6,-0.475,0.001,2.469e4,2885.12,20.06,0.058,88.157,68.649,3.81,0.511,3.464e7,0,103.427,0.472,0.472,0.363,0.014,0.094,0.045,0.172,1.691e-4,0,0,0,0,-1.88E-05,0.022,5.12,132.83,86.63,0.008,2.286,8.789,903.705,336.625,0.05,0.311
6.895,964.181,171,-13.958,171.135,13.959,30.82,0.007,30.82,0.012,6.798,0.164,28.61,-80.6,9.789,0.373,1.741e-6,0.25,1.657e-4,2.469e4,2885.12,20.06,0.058,88.106,68.649,3.8,0.509,3.447e7,0,102.467,0.471,0.472,0.363,0.014,0.094,0.049,0.186,-7.48E-05,0,0,0,0,5.253e-6,0.022,5.12,132.83,86.625,0.008,2.17,8.733,902.748,336.591,0.05,0.313
6.945,972.714,170.303,-13.915,170.439,13.916,31.16,0.007,31.16,0.012,6.805,0.101,28.61,-80.6,9.789,0.318,1.749e-6,0.956,9.318e-5,2.469e4,2885.12,20.06,0.058,88.183,68.649,3.815,0.507,3.431e7,0,101.507,0.471,0.471,0.363,0.014,0.094,0.042,0.159,-1.91E-04,0,0,0,0,7.737e-5,0.022,5.12,132.83,86.656,0.009,2.2,8.677,901.794,336.557,0.05,0.314
6.995,981.212,169.608,-13.871,169.745,13.871,31.501,0.007,31.501,0.013,6.808,0.011,28.61,-80.6,9.789,0.236,3.302e-6,1.507,0.002,2.469e4,2885.12,20.06,0.058,88.302,68.649,3.839,0.505,3.414e7,0,100.553,0.471,0.471,0.363,0.014,0.093,0.031,0.118,-2.87E-04,0,0,0,0,1.936e-4,0.022,5.12,132.83,86.718,0.011,2.217,8.622,900.845,336.524,0.05,0.315
7.045,989.675,168.915,-13.828,169.053,13.828,31.841,0.007,31.841,0.013,6.807,0.061,28.61,-80.6,9.789,0.168,3.571e-6,1.906,0.002,2.469e4,2885.12,20.06,0.058,88.403,68.649,3.858,0.503,3.398e7,0,99.605,0.471,0.471,0.363,0.014,0.093,0.022,0.083,-1.52E-05,0,0,0,0,3.124e-4,0.022,5.12,132.83,86.804,0.013,2.13,8.567,899.899,336.491,0.05,0.317
7.095,998.103,168.225,-13.788,168.363,13.788,32.181,0.007,32.181,0.013,6.803,0.095,28.61,-80.6,9.789,0.13,0,2.196,0.002,2.469e4,2885.12,20.06,0.058,88.456,68.649,3.869,0.501,3.382e7,0,98.662,0.471,0.471,0.364,0.014,0.093,0.017,0.064,4.557e-4,0,0,0,0,4.181e-4,0.022,5.12,132.83,86.908,0.016,1.903,8.512,898.958,336.457,0.05,0.318
7.145,1006.497,167.537,-13.742,167.675,13.745,32.521,0.007,32.521,0.013,6.794,0.249,28.61,-80.6,9.789,0.02,4.338e-6,-2.312,0.003,2.469e4,2885.12,20.06,0.058,88.624,68.649,3.901,0.499,3.366e7,0,97.748,0.471,0.471,0.364,0.014,0.093,0.003,0.01,3.338e-4,0,0,0,0,-4.67E-04,0.021,5.12,132.83,87.022,0.019,1.986,8.458,898.055,336.424,0.05,0.319
7.195,1014.857,166.851,-13.702,166.988,13.706,32.861,0.007,32.861,0.013,6.78,0.327,28.61,-80.6,9.789,0.102,6.372e-7,-2.181,0.002,2.469e4,2885.12,20.06,0.058,88.488,68.649,3.875,0.497,3.35e7,0,96.84,0.471,0.471,0.364,0.014,0.093,0.013,0.051,-2.41E-04,0,0,0,0,-4.19E-04,0.021,5.12,132.83,87.135,0.022,1.873,8.403,897.165,336.391,0.05,0.32
7.245,1023.182,166.167,-13.661,166.304,13.668,33.199,0.008,33.199,0.013,6.761,0.434,28.61,-80.6,9.789,0.21,8.037e-7,-1.885,2.927e-4,2.469e4,2885.12,20.06,0.058,88.313,68.649,3.841,0.495,3.334e7,0,95.953,0.47,0.47,0.364,0.014,0.093,0.027,0.106,9.264e-5,0,0,0,0,-3.16E-04,0.021,5.12,132.83,87.237,0.025,1.872,8.349,896.28,336.359,0.05,0.32
7.295,1031.474,165.485,-13.623,165.622,13.631,33.537,0.008,33.537,0.013,6.738,0.48,28.61,-80.6,9.789,0.261,8.953e-7,-1.433,7.919e-4,2.469e4,2885.12,20.06,0.058,88.228,68.649,3.824,0.493,3.318e7,0,95.064,0.47,0.47,0.364,0.014,0.093,0.034,0.13,2.635e-4,0,0,0,0,-1.84E-04,0.021,5.12,132.83,87.32,0.028,1.766,8.295,895.398,336.326,0.05,0.321
7.345,1039.731,164.804,-13.584,164.941,13.596,33.873,0.008,33.873,0.013,6.712,0.562,28.61,-80.6,9.789,0.345,2.091e-6,-0.873,-4.25E-05,2.469e4,2885.12,20.06,0.058,88.094,68.649,3.798,0.491,3.302e7,0,94.2,0.47,0.47,0.364,0.014,0.092,0.045,0.172,-2.75E-04,0,0,0,0,-6.89E-05,0.021,5.12,132.83,87.378,0.03,1.831,8.242,894.519,336.293,0.05,0.322
7.395,1047.954,164.126,-13.548,164.262,13.561,34.208,0.008,34.208,0.013,6.682,0.597,28.61,-80.6,9.789,0.384,9.339e-7,-0.19,0.001,2.469e4,2885.12,20.06,0.058,88.029,68.649,3.785,0.489,3.286e7,0,93.336,0.47,0.47,0.364,0.014,0.092,0.05,0.191,-1.48E-04,0,0,0,0,-3.30E-06,0.021,5.12,132.83,87.405,0.031,1.861,8.188,893.645,336.261,0.05,0.323
7.445,1056.143,163.45,-13.513,163.585,13.526,34.541,0.008,34.541,0.013,6.653,0.581,28.61,-80.6,9.789,0.373,1.829e-6,0.507,3.897e-4,2.469e4,2885.12,20.06,0.058,88.039,68.649,3.787,0.487,3.271e7,0,92.465,0.47,0.47,0.364,0.014,0.092,0.049,0.186,-1.66E-04,0,0,0,0,2.36e-5,0.021,5.12,132.83,87.397,0.03,1.847,8.135,892.774,336.229,0.05,0.324
7.495,1064.299,162.775,-13.478,162.91,13.491,34.873,0.008,34.873,0.014,6.624,0.577,28.61,-80.6,9.789,0.372,4.597e-7,1.18,-0.001,2.469e4,2885.12,20.06,0.058,88.036,68.649,3.787,0.485,3.255e7,0,91.611,0.47,0.47,0.364,0.014,0.092,0.049,0.185,3.876e-4,0,0,0,0,1.289e-4,0.021,5.12,132.83,87.354,0.029,1.959,8.082,891.906,336.197,0.05,0.325
7.545,1072.421,162.102,-13.447,162.236,13.456,35.203,0.008,35.203,0.014,6.597,0.477,28.61,-80.6,9.789,0.277,1.466e-6,1.775,-5.38E-04,2.469e4,2885.12,20.06,0.058,88.176,68.649,3.814,0.483,3.24e7,0,90.737,0.47,0.47,0.364,0.014,0.092,0.036,0.137,-1.46E-04,0,0,0,0,2.942e-4,0.021,5.12,132.83,87.279,0.027,1.889,8.029,891.042,336.165,0.05,0.326
7.595,1080.509,161.43,-13.417,161.564,13.422,35.533,0.009,35.533,0.014,6.576,0.366,28.61,-80.6,9.789,0.166,2.613e-6,2.162,9.248e-4,2.469e4,2885.12,20.06,0.058,88.342,68.649,3.846,0.481,3.224e7,0,89.875,0.469,0.469,0.364,0.014,0.092,0.021,0.082,4.922e-4,0,0,0,0,4.401e-4,0.021,5.12,132.83,87.18,0.024,1.842,7.977,890.182,336.133,0.05,0.327
7.645,1088.564,160.76,-13.387,160.894,13.39,35.861,0.009,35.861,0.014,6.56,0.281,28.61,-80.6,9.789,0.077,3.062e-6,2.374,0.001,2.469e4,2885.12,20.06,0.058,88.477,68.649,3.873,0.479,3.209e7,0,89.034,0.469,0.469,0.364,0.013,0.091,0.01,0.038,3.95e-5,0,0,0,0,5.348e-4,0.021,5.12,132.83,87.066,0.021,1.895,7.924,889.325,336.101,0.05,0.327
