# Time (s),Altitude (m),Vertical velocity (m/s),Vertical acceleration (m/s²),Total velocity (m/s),Total acceleration (m/s²),Position East of launch (m),Position North of launch (m),Lateral distance (m),Lateral direction (°),Lateral velocity (m/s),Lateral acceleration (m/s²),Latitude (°),Longitude (°),Gravitational acceleration (m/s²),Angle of attack (°),Roll rate (°/s),Pitch rate (°/s),Yaw rate (°/s),Mass (g),Motor mass (g),Longitudinal moment of inertia (kg·m²),Rotational moment of inertia (kg·m²),CP location (cm),CG location (cm),Stability margin calibers (​),Mach number (​),Reynolds number (​),Thrust (N),Drag force (N),Drag coefficient (​),Axial drag coefficient (​),Friction drag coefficient (​),Pressure drag coefficient (​),Base drag coefficient (​),Normal force coefficient (​),Pitch moment coefficient (​),Yaw moment coefficient (​),Side force coefficient (​),Roll moment coefficient (​),Roll forcing coefficient (​),Roll damping coefficient (​),Pitch damping coefficient (​),Coriolis acceleration (m/s²),Reference length (cm),Reference area (cm²),Vertical orientation (zenith) (°),Lateral orientation (azimuth) (°),Wind velocity (m/s),Air temperature (°C),Air pressure (mbar),Speed of sound (m/s),Simulation time step (s),Computation time (s)
0.01,9.508e-4,0.19,19.021,0.19,19.021,0,0,0,0,0,0,28.61,-80.6,9.792,85.056,0,0,0,3.007e4,8099.318,23.331,0.064,NaN,184.413,NaN,0.006,4.603e5,866.536,3.603e-5,0.586,8.991e-4,0.504,0.009,0.072,NaN,NaN,NaN,NaN,NaN,NaN,NaN,NaN,2.435e-5,13.081,134.391,90,0,2.198,15,1013.25,340.389,0.01,0.011
0.02,0.007,0.957,76.673,0.957,76.673,0,0,0,0,0,0,28.61,-80.6,9.792,66.284,0,0,0,3.007e4,8090.636,23.324,0.064,NaN,184.387,NaN,0.007,4.963e5,2599.609,0.004,0.578,0.078,0.496,0.009,0.072,NaN,NaN,NaN,NaN,NaN,NaN,NaN,NaN,1.225e-4,13.081,134.391,90,0,2.178,15,1013.249,340.389,0.01,0.013
0.03,0.022,2.053,109.69,2.053,109.69,0,0,0,0,0,0,28.61,-80.6,9.792,46.42,0,0,0,3.005e4,8074.741,23.311,0.064,NaN,184.34,NaN,0.009,6.214e5,3590.388,0.025,0.555,0.339,0.473,0.009,0.072,NaN,NaN,NaN,NaN,NaN,NaN,NaN,NaN,2.629e-4,13.081,134.391,90,0,2.158,15,1013.247,340.389,0.01,0.015
0.04,0.048,3.12,106.739,3.12,106.739,0,0,0,0,0,0,28.61,-80.6,9.792,34.411,0,0,0,3.003e4,8058.044,23.297,0.064,NaN,184.29,NaN,0.011,7.891e5,3499.8,0.062,0.532,0.524,0.451,0.009,0.072,NaN,NaN,NaN,NaN,NaN,NaN,NaN,NaN,3.995e-4,13.081,134.391,90,0,2.137,15,1013.244,340.389,0.01,0.017
0.05,0.084,4.155,103.493,4.155,103.493,0,0,0,0,0,0,28.61,-80.6,9.792,27.001,0,0,0,3.002e4,8041.427,23.283,0.064,NaN,184.241,NaN,0.014,9.729e5,3400.498,0.108,0.514,0.606,0.432,0.009,0.072,NaN,NaN,NaN,NaN,NaN,NaN,NaN,NaN,5.32e-4,13.081,134.391,90,0,2.117,14.999,1013.24,340.389,0.01,0.02
0.06,0.131,5.175,102.015,5.175,102.015,0,0,0,0,0,0,28.61,-80.6,9.792,22.397,0,0,0,3e4,8025.537,23.27,0.064,NaN,184.194,NaN,0.016,1.168e6,3354.412,0.162,0.499,0.629,0.417,0.009,0.072,NaN,NaN,NaN,NaN,NaN,NaN,NaN,NaN,6.626e-4,13.081,134.391,90,0,2.133,14.999,1013.235,340.388,0.01,0.022
0.07,0.187,6.192,101.754,6.192,101.754,0,0,0,0,0,0,28.61,-80.6,9.792,19.131,0,0,0,2.998e4,8009.648,23.256,0.064,NaN,184.146,NaN,0.019,1.367e6,3344.856,0.222,0.486,0.629,0.404,0.009,0.072,NaN,NaN,NaN,NaN,NaN,NaN,NaN,NaN,7.928e-4,13.081,134.391,90,0,2.148,14.999,1013.228,340.388,0.01,0.024
0.08,0.254,7.207,101.492,7.207,101.492,0,0,0,0,0,0,28.61,-80.6,9.792,16.709,0,0,0,2.997e4,7993.758,23.243,0.064,NaN,184.099,NaN,0.022,1.57e6,3335.3,0.288,0.476,0.618,0.394,0.009,0.072,NaN,NaN,NaN,NaN,NaN,NaN,NaN,NaN,9.227e-4,13.081,134.391,90,0,2.163,14.998,1013.22,340.388,0.01,0.027
0.09,0.332,8.219,101.23,8.219,101.23,0,0,0,0,0,0,28.61,-80.6,9.792,14.847,0,0,0,2.995e4,7977.869,23.229,0.064,NaN,184.052,NaN,0.025,1.774e6,3325.745,0.357,0.467,0.6,0.385,0.009,0.072,NaN,NaN,NaN,NaN,NaN,NaN,NaN,NaN,0.001,13.081,134.391,90,0,2.179,14.998,1013.211,340.388,0.01,0.028
0.1,0.419,9.228,100.967,9.228,100.967,0,0,0,0,0,0,28.61,-80.6,9.792,13.374,0,0,0,2.994e4,7961.979,23.216,0.064,NaN,184.004,NaN,0.028,1.979e6,3316.189,0.43,0.459,0.58,0.377,0.009,0.072,NaN,NaN,NaN,NaN,NaN,NaN,NaN,NaN,0.001,13.081,134.391,90,0,2.194,14.997,1013.201,340.387,0.01,0.03
0.11,0.516,10.235,100.704,10.235,100.704,0,0,0,0,0,0,28.61,-80.6,9.792,12.107,0,0,0,2.992e4,7946.089,23.203,0.064,NaN,183.957,NaN,0.031,2.184e6,3306.633,0.505,0.452,0.56,0.37,0.009,0.072,NaN,NaN,NaN,NaN,NaN,NaN,NaN,NaN,0.001,13.081,134.391,90,0,2.195,14.997,1013.189,340.387,0.01,0.032
0.12,0.621,11.218,100.658,11.218,100.658,0,0,0,0,0,0,28.61,-80.6,9.792,11.08,0,0,0,2.991e4,7930.317,23.189,0.064,NaN,183.909,NaN,0.034,2.385e6,3303.608,0.584,0.446,0.543,0.364,0.009,0.072,NaN,NaN,NaN,NaN,NaN,NaN,NaN,NaN,0.001,13.081,134.391,90,0,2.197,14.996,1013.177,340.386,0.01,0.034
0.129,0.725,12.118,100.918,12.118,100.918,0,0,0,0,0,0,28.61,-80.6,9.792,10.281,0,0,0,2.989e4,7915.9,23.177,0.064,NaN,183.866,NaN,0.036,2.569e6,3309.838,0.659,0.441,0.528,0.359,0.009,0.072,NaN,NaN,NaN,NaN,NaN,NaN,NaN,NaN,0.002,13.081,134.391,90,0,2.198,14.995,1013.165,340.386,0.009,0.035
0.137,0.828,12.952,101.158,12.952,101.158,0,0,0,0,0,0,28.61,-80.6,9.792,9.637,0,0,0,2.988e4,7902.554,23.166,0.064,NaN,183.826,NaN,0.039,2.741e6,3315.639,0.739,0.441,0.52,0.359,0.009,0.073,NaN,NaN,NaN,NaN,NaN,NaN,NaN,NaN,0.002,13.081,134.391,90,0,2.199,14.995,1013.153,340.386,0.008,0.037
0.145,0.931,13.735,101.383,13.735,101.383,0,0,0,0,0,0,28.61,-80.6,9.792,9.101,0,0,0,2.986e4,7890.068,23.155,0.064,NaN,183.789,NaN,0.041,2.902e6,3321.037,0.819,0.441,0.514,0.359,0.009,0.073,NaN,NaN,NaN,NaN,NaN,NaN,NaN,NaN,0.002,13.081,134.391,90,0,2.2,14.994,1013.141,340.385,0.008,0.039
0.152,1.034,14.474,101.594,14.474,101.594,0,0,0,0,0,0,28.61,-80.6,9.792,8.649,0,0,0,2.985e4,7878.293,23.145,0.064,NaN,183.753,NaN,0.043,3.054e6,3326.106,0.898,0.441,0.509,0.359,0.009,0.073,NaN,NaN,NaN,NaN,NaN,NaN,NaN,NaN,0.002,13.081,134.391,90,0,2.202,14.993,1013.129,340.385,0.007,0.041
0.163,1.198,15.586,101.862,15.586,101.862,-6.391e-6,0,6.391e-6,-180,0.001,0.111,28.61,-80.6,9.792,8.048,0,0.01,-2.62e-6,2.984e4,7860.631,23.13,0.064,195.468,183.7,0.9,0.046,3.284e6,3332.257,1.024,0.441,0.502,0.359,0.009,0.073,1.588,1.429,-1.123e-4,0,0,0,0,7.921e-7,0.002,13.081,134.391,90,0,2.205,14.992,1013.109,340.384,0.011,0.043
0.179,1.467,17.261,102.264,17.261,102.264,-4.087e-5,0,4.087e-5,-180,0.003,0.118,28.61,-80.6,9.792,7.286,0,0.027,-6.522e-6,2.981e4,7834.138,23.108,0.064,196.547,183.62,0.988,0.051,3.63e6,3341.482,1.229,0.441,0.493,0.359,0.009,0.073,1.387,1.371,-3.208e-4,0,0,0,0,4.829e-6,0.002,13.081,134.391,90,0.001,2.21,14.99,1013.078,340.383,0.016,0.045
0.204,1.922,19.786,102.866,19.786,102.867,-1.523e-4,0,1.523e-4,-180,0.006,0.128,28.61,-80.6,9.792,6.388,0,0.057,-4.864e-6,2.977e4,7794.399,23.074,0.064,197.934,183.5,1.103,0.058,4.153e6,3355.321,1.577,0.441,0.483,0.359,0.009,0.073,1.164,1.285,3.506e-4,0,0,0,0,1.694e-5,0.003,13.081,134.391,89.999,0.002,2.222,14.988,1013.025,340.381,0.025,0.047
0.241,2.722,23.607,103.771,23.607,103.771,-4.66e-4,0,4.66e-4,-180,0.011,0.142,28.61,-80.6,9.792,5.473,0,0.114,8.177e-6,2.971e4,7734.789,23.023,0.064,199.495,183.32,1.237,0.07,4.947e6,3376.08,2.192,0.441,0.474,0.359,0.009,0.073,0.952,1.176,2.559e-4,0,0,0,0,4.843e-5,0.003,13.081,134.391,89.996,-0.001,2.275,14.982,1012.931,340.378,0.037,0.048
0.291,4.033,28.85,105.037,28.85,105.037,-0.001,0,0.001,-180,0.018,0.146,28.61,-80.6,9.792,4.39,0,0.217,1.816e-5,2.963e4,7653.928,22.954,0.064,201.564,183.074,1.414,0.085,6.035e6,3405.43,3.193,0.442,0.463,0.359,0.009,0.073,0.72,1.018,-4.394e-4,0,0,0,0,1.164e-4,0.004,13.081,134.391,89.987,-0.005,2.239,14.974,1012.777,340.373,0.05,0.05
0.341,5.609,34.166,106.454,34.166,106.454,-0.002,-1.759e-8,0.002,-180,0.025,0.134,28.61,-80.6,9.792,3.589,0,0.343,1.008e-5,2.955e4,7573.066,22.884,0.064,203.276,182.826,1.563,0.101,7.139e6,3439.222,4.406,0.442,0.457,0.359,0.01,0.073,0.562,0.879,3.781e-4,0,0,0,0,2.087e-4,0.004,13.081,134.391,89.974,-0.005,2.184,14.964,1012.592,340.367,0.05,0.052
0.391,7.452,39.552,107.867,39.552,107.867,-0.004,-4.699e-8,0.004,-179.999,0.032,0.108,28.61,-80.6,9.792,3.021,0,0.494,5.093e-5,2.947e4,7490.32,22.813,0.064,204.604,182.571,1.684,0.116,8.259e6,3472.673,5.846,0.442,0.453,0.359,0.01,0.073,0.458,0.77,-2.118e-4,0,0,0,0,3.232e-4,0.005,13.081,134.391,89.953,-0.003,2.152,14.952,1012.376,340.36,0.05,0.053
0.441,9.566,45.002,109.145,45.002,109.145,-0.005,-9.286e-8,0.005,-179.999,0.036,0.076,28.61,-80.6,9.792,2.706,0,0.672,-7.647e-5,2.938e4,7403.805,22.737,0.064,205.396,182.304,1.765,0.132,9.393e6,3501.715,7.533,0.442,0.451,0.359,0.01,0.074,0.402,0.709,-2.898e-4,0,0,0,0,4.626e-4,0.006,13.081,134.391,89.924,-8.117e-4,2.223,14.938,1012.128,340.351,0.05,0.055
0.491,11.953,50.514,110.376,50.514,110.376,-0.007,-1.507e-7,0.007,-179.999,0.039,0.018,28.61,-80.6,9.792,2.414,0,0.884,8.423e-5,2.929e4,7317.29,22.661,0.063,206.165,182.034,1.845,0.149,1.054e7,3529.4,9.455,0.443,0.45,0.359,0.01,0.074,0.352,0.65,-1.473e-4,0,0,0,0,6.346e-4,0.006,13.081,134.391,89.885,-8.604e-5,2.27,14.922,1011.848,340.342,0.05,0.056
0.541,14.618,56.087,111.606,56.087,111.606,-0.009,-2.14e-7,0.009,-179.999,0.037,0.085,28.61,-80.6,9.792,2.039,0,1.119,3.383e-5,2.921e4,7230.776,22.585,0.063,207.19,181.763,1.944,0.165,1.17e7,3557.086,11.605,0.443,0.448,0.358,0.01,0.075,0.291,0.564,2.14e-4,0,0,0,0,8.266e-4,0.007,13.081,134.391,89.835,1.265e-4,2.195,14.905,1011.536,340.331,0.05,0.058
0.591,17.563,61.722,112.834,61.722,112.835,-0.011,-2.827e-7,0.011,-179.999,0.03,0.214,28.61,-80.6,9.792,1.757,0,1.369,-2.552e-4,2.912e4,7144.261,22.509,0.063,208.005,181.491,2.027,0.181,1.287e7,3584.771,14.018,0.443,0.447,0.358,0.01,0.075,0.246,0.498,-1.456e-4,0,0,0,0,0.001,0.008,13.081,134.391,89.773,9.302e-4,2.168,14.886,1011.19,340.32,0.05,0.06
0.641,20.792,67.418,114.061,67.418,114.062,-0.012,-3.357e-7,0.012,-179.998,0.014,0.406,28.61,-80.6,9.792,1.359,0,1.627,5.516e-6,2.903e4,7057.746,22.431,0.063,209.2,181.216,2.139,0.198,1.405e7,3612.456,16.672,0.444,0.446,0.358,0.01,0.075,0.185,0.395,-8.577e-5,0,0,0,0,0.001,0.009,13.081,134.391,89.698,0.002,1.969,14.865,1010.811,340.307,0.05,0.062
0.691,24.307,73.175,115.286,73.175,115.287,-0.012,-3.314e-7,0.012,-179.998,0.011,0.621,28.61,-80.6,9.792,1.08,0,1.866,3.274e-5,2.895e4,6971.231,22.354,0.063,210.092,180.941,2.229,0.215,1.524e7,3640.142,19.614,0.444,0.446,0.358,0.01,0.076,0.145,0.321,9.903e-5,0,0,0,0,0.001,0.009,13.081,134.391,89.611,0.002,1.865,14.842,1010.399,340.293,0.05,0.063
0.741,28.111,78.994,116.506,78.994,116.509,-0.011,-2.499e-7,0.011,-179.999,0.048,0.853,28.61,-80.6,9.792,0.913,0,2.102,-1.688e-4,2.886e4,6884.717,22.276,0.063,210.667,180.663,2.294,0.232,1.645e7,3667.827,22.852,0.445,0.446,0.357,0.011,0.077,0.121,0.276,1.06e-4,0,0,0,0,0.001,0.01,13.081,134.391,89.511,0.002,1.884,14.817,1009.953,340.278,0.05,0.065
0.791,32.208,84.874,117.724,84.874,117.729,-0.007,-5.644e-8,0.007,-180,0.098,1.145,28.61,-80.6,9.792,0.666,0,2.329,-4.042e-4,2.877e4,6798.202,22.198,0.063,211.519,180.384,2.38,0.249,1.767e7,3695.513,26.371,0.445,0.446,0.357,0.011,0.077,0.087,0.205,-2.871e-4,0,0,0,0,0.002,0.011,13.081,134.391,89.4,0.003,1.777,14.791,1009.473,340.262,0.05,0.066
0.841,36.6,90.815,118.937,90.815,118.945,-6.128e-4,3.36e-7,6.128e-4,179.969,0.163,1.438,28.61,-80.6,9.792,0.557,0,2.525,-3.512e-4,2.869e4,6711.687,22.119,0.063,211.942,180.103,2.434,0.267,1.89e7,3723.198,30.21,0.446,0.446,0.357,0.011,0.078,0.072,0.174,-4.965e-4,0,0,0,0,0.002,0.012,13.081,134.391,89.279,0.003,1.863,14.762,1008.957,340.245,0.05,0.068
0.891,41.29,96.816,120.145,96.816,120.158,0.009,1.016e-6,0.009,0.006,0.243,1.757,28.61,-80.6,9.792,0.474,8.503e-7,2.726,1.345e-5,2.86e4,6625.173,22.039,0.063,212.29,179.82,2.482,0.285,2.014e7,3750.884,34.364,0.447,0.447,0.356,0.011,0.079,0.061,0.149,4.504e-4,0,0,0,0,0.002,0.012,13.081,134.391,89.148,0.003,1.998,14.732,1008.407,340.226,0.05,0.07
0.941,46.283,102.882,121.455,102.883,121.474,0.024,2.064e-6,0.024,0.005,0.341,2.146,28.61,-80.6,9.792,0.299,5.071e-7,2.901,-2.894e-4,2.851e4,6535.493,21.957,0.063,212.962,179.526,2.556,0.302,2.139e7,3781.222,38.833,0.447,0.447,0.356,0.012,0.08,0.038,0.096,-1.699e-4,0,0,0,0,0.002,0.013,13.081,134.391,89.007,0.003,1.979,14.699,1007.822,340.207,0.05,0.072
0.991,51.581,109.031,123.109,109.032,123.136,0.044,3.55e-6,0.044,0.005,0.46,2.589,28.61,-80.6,9.792,0.1,0,2.998,-3.935e-4,2.842e4,6443.981,21.872,0.062,213.741,179.223,2.639,0.321,2.266e7,3821.243,43.656,0.448,0.448,0.356,0.012,0.08,0.013,0.032,1.915e-4,0,0,0,0,0.002,0.014,13.081,134.391,88.859,0.003,1.901,14.665,1007.2,340.186,0.05,0.074
1.041,57.188,115.265,124.789,115.266,124.827,0.07,5.437e-6,0.07,0.004,0.602,3.054,28.61,-80.6,9.792,0.075,0,-2.999,-0.001,2.833e4,6352.469,21.786,0.062,213.916,178.919,2.675,0.339,2.395e7,3862.151,48.855,0.449,0.449,0.355,0.012,0.081,0.009,0.027,3.502e-4,0,0,0,0,-0.001,0.015,13.081,134.391,88.709,0.001,1.844,14.628,1006.543,340.164,0.05,0.076
1.091,63.109,121.566,126.149,121.569,126.198,0.105,7.609e-6,0.105,0.004,0.767,3.525,28.61,-80.6,9.792,0.234,-7.121e-7,-2.892,-4.307e-5,2.823e4,6260.126,21.7,0.062,213.443,178.609,2.663,0.357,2.525e7,3893.997,54.431,0.45,0.45,0.355,0.013,0.082,0.03,0.081,-3.675e-4,0,0,0,0,-0.001,0.016,13.081,134.391,88.561,-2.755e-5,1.789,14.59,1005.848,340.14,0.05,0.078
1.141,69.345,127.877,126.333,127.881,126.394,0.147,9.891e-6,0.147,0.004,0.954,3.945,28.61,-80.6,9.792,0.347,8.213e-7,-2.667,-2.634e-4,2.814e4,6167.302,21.612,0.062,213.144,178.296,2.664,0.376,2.655e7,3892.771,60.336,0.451,0.451,0.354,0.013,0.083,0.045,0.119,-1.587e-4,0,0,0,0,-9.034e-4,0.016,13.081,134.391,88.422,-5.293e-4,1.793,14.549,1005.117,340.116,0.05,0.08
1.191,75.896,134.192,126.398,134.197,126.472,0.2,1.22e-5,0.2,0.003,1.16,4.308,28.61,-80.6,9.792,0.407,9.854e-7,-2.346,-2.64e-4,2.805e4,6074.478,21.524,0.062,213.042,177.981,2.68,0.395,2.784e7,3888.511,66.564,0.452,0.452,0.354,0.013,0.085,0.052,0.142,-3.339e-4,0,0,0,0,-6.349e-4,0.017,13.081,134.391,88.296,-8.07e-4,1.877,14.507,1004.349,340.09,0.05,0.082
1.241,82.764,140.506,126.378,140.513,126.464,0.264,1.454e-5,0.264,0.003,1.385,4.667,28.61,-80.6,9.792,0.507,-1.747e-6,-1.922,0.001,2.796e4,5982.511,21.436,0.062,212.808,177.667,2.686,0.413,2.914e7,3882.297,73.122,0.453,0.453,0.353,0.014,0.086,0.066,0.177,-4.905e-4,0,0,0,0,-3.887e-4,0.018,13.081,134.391,88.189,-6.068e-4,1.813,14.462,1003.543,340.063,0.05,0.084
1.291,89.947,146.807,126.109,146.816,126.205,0.339,1.692e-5,0.339,0.003,1.625,4.922,28.61,-80.6,9.792,0.544,0,-1.363,8.706e-4,2.787e4,5891,21.347,0.062,212.792,177.352,2.709,0.432,3.043e7,3869.44,79.985,0.454,0.454,0.353,0.014,0.087,0.071,0.193,-4.531e-5,0,0,0,0,-1.791e-4,0.019,13.081,134.391,88.107,2.571e-4,1.831,14.415,1002.701,340.035,0.05,0.087
1.341,97.444,153.093,125.808,153.104,125.913,0.426,1.96e-5,0.426,0.003,1.876,5.128,28.61,-80.6,9.792,0.6,0,-0.713,6.068e-4,2.777e4,5799.488,21.259,0.062,212.722,177.035,2.728,0.45,3.171e7,3856.033,87.164,0.455,0.456,0.352,0.015,0.088,0.079,0.215,3.442e-4,0,0,0,0,-4.503e-5,0.02,13.081,134.391,88.054,0.001,1.719,14.367,1001.821,340.005,0.05,0.089
1.391,105.255,159.363,125.5,159.378,125.607,0.527,2.29e-5,0.527,0.002,2.134,5.18,28.61,-80.6,9.792,0.576,0,0.048,0.001,2.768e4,5707.976,21.169,0.062,212.923,176.716,2.768,0.469,3.299e7,3842.626,94.634,0.456,0.457,0.351,0.015,0.09,0.076,0.21,1.941e-4,0,0,0,0,1.922e-7,0.02,13.081,134.391,88.038,0.002,1.721,14.316,1000.905,339.974,0.05,0.091
1.441,113.38,165.618,125.183,165.636,125.288,0.64,2.698e-5,0.64,0.002,2.392,5.127,28.61,-80.6,9.792,0.542,0,0.824,0.001,2.759e4,5616.464,21.08,0.061,213.166,176.395,2.811,0.487,3.427e7,3829.219,102.411,0.458,0.458,0.351,0.016,0.091,0.071,0.2,4.159e-4,0,0,0,0,5.142e-5,0.021,13.081,134.391,88.06,0.002,1.652,14.263,999.952,339.942,0.05,0.093
1.491,121.817,171.857,124.86,171.878,124.956,0.766,3.198e-5,0.766,0.002,2.642,4.89,28.61,-80.6,9.792,0.432,-1.054e-6,1.585,1.911e-4,2.75e4,5524.953,20.989,0.061,213.673,176.072,2.874,0.506,3.554e7,3815.812,110.482,0.459,0.459,0.35,0.017,0.092,0.056,0.162,-4.312e-4,0,0,0,0,1.766e-4,0.022,13.081,134.391,88.121,0.002,1.702,14.208,998.963,339.909,0.05,0.094
1.541,130.565,178.08,124.527,178.103,124.609,0.904,3.804e-5,0.904,0.002,2.878,4.53,28.61,-80.6,9.792,0.301,-3.054e-6,2.2,9.383e-4,2.741e4,5433.441,20.898,0.061,214.269,175.747,2.945,0.524,3.68e7,3802.405,118.867,0.461,0.461,0.349,0.017,0.094,0.039,0.115,-3.854e-4,0,0,0,0,3.169e-4,0.023,13.081,134.391,88.216,0.004,1.734,14.151,997.937,339.875,0.05,0.096
1.591,139.624,184.283,124.117,184.309,124.184,1.053,4.558e-5,1.053,0.002,3.093,4.075,28.61,-80.6,9.792,0.163,1.869e-6,2.625,0.005,2.732e4,5344.193,20.809,0.061,214.915,175.427,3.019,0.542,3.805e7,3787.539,127.571,0.462,0.462,0.349,0.018,0.095,0.021,0.062,-1.012e-4,0,0,0,0,4.214e-4,0.024,13.081,134.391,88.338,0.007,1.735,14.092,996.874,339.839,0.05,0.098
1.641,148.992,190.438,123.167,190.467,123.218,1.213,5.518e-5,1.213,0.003,3.282,3.536,28.61,-80.6,9.792,0.012,-2.092e-6,2.796,0.061,2.723e4,5258.436,20.723,0.061,215.627,175.119,3.097,0.561,3.93e7,3758.753,136.563,0.464,0.464,0.348,0.019,0.097,0.002,0.004,3.296e-4,0,0,0,0,4.474e-4,0.024,13.081,134.391,88.474,0.011,1.753,14.032,995.776,339.802,0.05,0.1
1.691,158.667,196.54,122.071,196.57,122.108,1.381,6.778e-5,1.381,0.003,3.444,2.981,28.61,-80.6,9.792,0.129,8.631e-7,-2.658,0.004,2.715e4,5172.678,20.636,0.061,215.378,174.808,3.101,0.579,4.052e7,3726.499,145.832,0.465,0.465,0.347,0.019,0.099,0.017,0.052,-2.221e-5,0,0,0,0,-3.799e-4,0.025,13.081,134.391,88.612,0.015,1.765,13.969,994.641,339.764,0.05,0.101
1.741,168.645,202.586,120.955,202.618,120.981,1.557,8.398e-5,1.557,0.003,3.579,2.486,28.61,-80.6,9.792,0.236,-3.096e-6,-2.215,0.005,2.706e4,5086.921,20.548,0.061,215.179,174.495,3.11,0.597,4.174e7,3694.246,155.367,0.467,0.467,0.347,0.02,0.1,0.031,0.096,-4.291e-4,0,0,0,0,-2.481e-4,0.026,13.081,134.391,88.735,0.016,1.735,13.904,993.471,339.725,0.05,0.102
1.791,178.924,208.576,119.821,208.608,119.838,1.738,1.039e-4,1.738,0.003,3.691,2.04,28.61,-80.6,9.792,0.343,1.169e-6,-1.477,0.002,2.698e4,5001.163,20.46,0.061,214.997,174.18,3.12,0.614,4.294e7,3661.993,165.173,0.469,0.469,0.346,0.021,0.102,0.045,0.14,-3.973e-4,0,0,0,0,-1.041e-4,0.027,13.081,134.391,88.828,0.014,1.827,13.837,992.265,339.684,0.05,0.104
1.841,189.501,214.508,118.665,214.541,118.679,1.925,1.266e-4,1.925,0.004,3.786,1.816,28.61,-80.6,9.792,0.371,0,-0.468,0.003,2.689e4,4915.405,20.372,0.061,215.097,173.863,3.152,0.632,4.412e7,3629.739,175.202,0.47,0.471,0.345,0.022,0.104,0.049,0.154,3.226e-5,0,0,0,0,-9.894e-6,0.027,13.081,134.391,88.877,0.009,1.813,13.768,991.025,339.642,0.05,0.105
1.891,200.373,220.382,117.491,220.416,117.504,2.117,1.513e-4,2.117,0.004,3.874,1.787,28.61,-80.6,9.792,0.357,-6.374e-7,0.606,0.002,2.68e4,4829.648,20.283,0.06,215.354,173.545,3.196,0.649,4.529e7,3597.486,185.462,0.472,0.472,0.344,0.023,0.105,0.047,0.15,-2.054e-4,0,0,0,0,1.569e-5,0.028,13.081,134.391,88.873,0.005,1.835,13.698,989.75,339.6,0.05,0.106
1.941,211.538,226.197,116.296,226.231,116.313,2.313,1.771e-4,2.313,0.004,3.968,2.023,28.61,-80.6,9.792,0.273,1.59e-6,1.625,0.005,2.672e4,4743.89,20.193,0.06,215.866,173.224,3.26,0.666,4.645e7,3565.233,195.933,0.474,0.474,0.343,0.024,0.107,0.036,0.117,-4.049e-4,0,0,0,0,1.071e-4,0.029,13.081,134.391,88.816,0.002,1.783,13.625,988.44,339.556,0.05,0.108
1.991,222.991,231.951,115.08,231.987,115.106,2.514,2.036e-4,2.514,0.005,4.079,2.467,28.61,-80.6,9.792,0.142,-3.92e-6,2.336,0.007,2.663e4,4658.133,20.103,0.06,216.556,172.901,3.337,0.683,4.759e7,3532.979,206.636,0.476,0.476,0.343,0.025,0.109,0.019,0.062,-2.887e-4,0,0,0,0,2.105e-4,0.03,13.081,134.391,88.715,-0.003,1.698,13.551,987.097,339.511,0.05,0.109
2.041,234.731,237.644,113.843,237.681,113.882,2.721,2.294e-4,2.721,0.005,4.215,2.984,28.61,-80.6,9.791,0.013,3.171e-6,2.612,0.057,2.655e4,4572.375,20.013,0.06,217.261,172.576,3.416,0.7,4.871e7,3500.726,217.598,0.478,0.478,0.342,0.026,0.111,0.002,0.005,-2.259e-4,0,0,0,0,2.508e-4,0.03,13.081,134.391,88.589,-0.008,1.685,13.474,985.72,339.464,0.05,0.111
2.091,246.754,243.274,112.587,243.314,112.642,2.936,2.533e-4,2.936,0.005,4.377,3.514,28.61,-80.6,9.791,0.111,-4.197e-6,-2.413,0.01,2.646e4,4486.618,19.921,0.06,217.133,172.249,3.431,0.717,4.982e7,3468.473,228.816,0.48,0.481,0.341,0.027,0.113,0.014,0.05,-2.491e-4,0,0,0,0,-2.042e-4,0.031,13.081,134.391,88.461,-0.01,1.681,13.396,984.31,339.417,0.05,0.112
2.141,259.057,248.841,111.316,248.883,111.384,3.159,2.745e-4,3.159,0.005,4.562,3.875,28.61,-80.6,9.791,0.173,-3.475e-6,-1.785,0.007,2.638e4,4400.86,19.83,0.06,217.143,171.919,3.457,0.733,5.091e7,3436.219,240.282,0.483,0.483,0.34,0.028,0.115,0.023,0.079,-3.957e-4,0,0,0,0,-1.069e-4,0.032,13.081,134.391,88.355,-0.008,1.825,13.316,982.867,339.368,0.05,0.113
2.191,271.637,254.345,110.039,254.39,110.119,3.392,2.933e-4,3.392,0.005,4.764,4.195,28.61,-80.6,9.791,0.247,-2.868e-6,-0.872,0.006,2.629e4,4318.032,19.74,0.06,217.121,171.599,3.48,0.75,5.198e7,3404.59,251.986,0.485,0.485,0.339,0.03,0.116,0.033,0.115,3.472e-4,0,0,0,0,-2.439e-5,0.033,13.081,134.391,88.287,-0.003,1.738,13.234,981.392,339.319,0.05,0.115
2.241,284.49,259.793,108.911,259.841,108.993,3.636,3.111e-4,3.636,0.005,4.975,4.222,28.61,-80.6,9.791,0.248,-1.247e-6,0.341,3.494e-4,2.621e4,4238.736,19.654,0.06,217.365,171.291,3.522,0.766,5.304e7,3377.499,263.929,0.488,0.488,0.338,0.031,0.118,0.033,0.116,4.695e-4,0,0,0,0,3.579e-6,0.033,13.081,134.391,88.275,4.958e-4,1.722,13.151,979.884,339.268,0.05,0.116
2.291,297.615,265.187,107.812,265.237,107.884,3.89,3.294e-4,3.89,0.005,5.179,3.915,28.61,-80.6,9.791,0.174,1.971e-6,1.412,0.002,2.613e4,4159.439,19.568,0.06,217.883,170.981,3.586,0.782,5.409e7,3351.315,276.121,0.49,0.49,0.337,0.033,0.12,0.023,0.083,-4.389e-5,0,0,0,0,5.887e-5,0.034,13.081,134.391,88.32,0.002,1.79,13.066,978.345,339.217,0.05,0.118
2.341,311.007,270.525,106.703,270.578,106.755,4.153,3.485e-4,4.153,0.005,5.361,3.351,28.61,-80.6,9.791,0.05,3.673e-6,2.01,0.004,2.605e4,4080.142,19.481,0.06,218.602,170.669,3.664,0.798,5.512e7,3325.131,288.601,0.493,0.493,0.336,0.034,0.122,0.007,0.024,3.719e-4,0,0,0,0,1.146e-4,0.035,13.081,134.391,88.41,0.004,1.926,12.978,976.774,339.164,0.05,0.119
2.391,324.666,275.806,105.572,275.862,105.61,4.425,3.691e-4,4.425,0.005,5.513,2.818,28.61,-80.6,9.791,0.047,-5.856e-6,-1.985,0.007,2.598e4,4000.846,19.394,0.059,218.872,170.355,3.709,0.814,5.613e7,3298.947,301.393,0.496,0.496,0.336,0.036,0.124,0.006,0.023,-2.663e-4,0,0,0,0,-1.076e-4,0.035,13.081,134.391,88.513,0.007,1.888,12.89,975.172,339.11,0.05,0.121
2.441,338.587,281.031,104.419,281.088,104.445,4.704,3.922e-4,4.704,0.005,5.64,2.311,28.61,-80.6,9.791,0.138,-4.108e-6,-1.43,0.004,2.59e4,3921.549,19.306,0.059,218.801,170.039,3.728,0.829,5.713e7,3272.763,314.527,0.499,0.499,0.335,0.038,0.126,0.018,0.069,1.437e-4,0,0,0,0,-5.377e-5,0.036,13.081,134.391,88.6,0.008,1.916,12.799,973.539,339.055,0.05,0.122
2.491,352.768,286.205,103.392,286.263,103.411,4.989,4.182e-4,4.989,0.005,5.745,2.007,28.61,-80.6,9.791,0.187,-2.059e-6,-0.38,0.006,2.582e4,3842.873,19.218,0.059,218.889,169.724,3.759,0.845,5.812e7,3250.592,328.038,0.503,0.503,0.334,0.041,0.128,0.025,0.095,4.058e-4,0,0,0,0,-3.652e-6,0.037,13.081,134.391,88.646,0.003,1.965,12.707,971.876,338.999,0.05,0.124
2.541,367.207,291.379,103.368,291.437,103.389,5.279,4.451e-4,5.279,0.005,5.845,2.061,28.61,-80.6,9.791,0.171,1.573e-6,0.849,0.006,2.574e4,3764.889,19.131,0.059,219.224,169.409,3.808,0.86,5.91e7,3255.247,342.097,0.507,0.507,0.333,0.043,0.13,0.023,0.088,9.904e-5,0,0,0,0,1.761e-5,0.037,13.081,134.391,88.633,-0.005,1.984,12.613,970.183,338.942,0.05,0.125
2.591,381.906,296.56,103.505,296.62,103.533,5.574,4.707e-4,5.574,0.005,5.956,2.412,28.61,-80.6,9.791,0.107,-4.091e-6,1.831,0.015,2.566e4,3686.905,19.042,0.059,219.743,169.093,3.872,0.875,6.008e7,3264.865,356.837,0.511,0.511,0.332,0.047,0.132,0.014,0.056,-1.715e-4,0,0,0,0,7.912e-5,0.038,13.081,134.391,88.562,-0.014,2.038,12.518,968.459,338.885,0.05,0.126
2.641,396.864,301.747,103.603,301.809,103.646,5.875,4.918e-4,5.875,0.005,6.091,2.977,28.61,-80.6,9.791,0.01,-6.395e-7,2.278,0.091,2.558e4,3608.92,18.954,0.059,220.396,168.775,3.946,0.891,6.106e7,3274.483,372.413,0.516,0.516,0.331,0.05,0.135,0.001,0.005,-3.712e-4,0,0,0,0,1.183e-4,0.039,13.081,134.391,88.455,-0.014,2.091,12.42,966.705,338.826,0.05,0.128
2.691,412.081,306.939,103.734,307.003,103.797,6.183,5.081e-4,6.183,0.005,6.257,3.63,28.61,-80.6,9.791,0.1,4.891e-6,-1.914,0.005,2.551e4,3530.936,18.865,0.059,220.354,168.454,3.968,0.906,6.203e7,3284.101,387.062,0.519,0.519,0.329,0.053,0.137,0.014,0.054,-2.592e-4,0,0,0,0,-8.07e-5,0.039,13.081,134.391,88.346,-0.004,2.049,12.321,964.92,338.766,0.05,0.129
2.741,427.556,312.086,102.861,312.153,102.936,6.501,5.236e-4,6.501,0.005,6.448,3.923,28.61,-80.6,9.791,0.139,-5.652e-6,-0.853,0.008,2.543e4,3456.485,18.779,0.059,220.507,168.147,4.003,0.922,6.3e7,3265.812,399.181,0.518,0.518,0.326,0.053,0.139,0.019,0.076,2.356e-4,0,0,0,0,-1.552e-5,0.04,13.081,134.391,88.275,0.006,2.169,12.221,963.105,338.705,0.05,0.131
2.791,443.249,315.613,70.458,315.682,70.521,6.827,5.42e-4,6.827,0.005,6.598,2.963,28.61,-80.6,9.791,0.135,-2.74e-6,0.332,0.01,2.538e4,3405.354,18.72,0.059,220.735,167.935,4.036,0.932,6.363e7,2445.495,407.373,0.518,0.518,0.325,0.053,0.141,0.019,0.075,2.077e-4,0,0,0,0,2.3e-6,0.04,13.081,134.391,88.264,0.014,2.216,12.119,961.264,338.643,0.05,0.132
2.841,459.058,316.749,22.696,316.819,22.733,7.159,5.661e-4,7.159,0.005,6.67,1.299,28.61,-80.6,9.791,0.089,-4.937e-6,1.342,0.001,2.534e4,3366.913,18.676,0.059,220.978,167.775,4.067,0.936,6.378e7,1233.511,409.574,0.518,0.518,0.324,0.053,0.141,0.012,0.049,-4.895e-4,0,0,0,0,3.729e-5,0.041,13.081,134.391,88.31,0.019,2.183,12.016,959.41,338.581,0.05,0.134
2.891,474.895,316.723,-0.5,316.793,0.544,7.493,5.97e-4,7.493,0.005,6.69,0.215,28.61,-80.6,9.791,0.001,-6.434e-6,-1.673,0.539,2.533e4,3351.072,18.657,0.059,221.312,167.708,4.098,0.936,6.369e7,644.264,408.852,0.518,0.518,0.324,0.053,0.141,1.971e-4,6.24e-4,2.558e-4,0,0,0,0,-5.795e-5,0.041,13.081,134.391,88.393,0.018,2.217,11.913,957.553,338.518,0.05,0.135
2.941,490.712,315.966,-15.078,316.037,15.086,7.827,6.335e-4,7.827,0.005,6.672,0.508,28.61,-80.6,9.791,0.077,-3.819e-6,-1.371,0.007,2.532e4,3343.942,18.649,0.059,220.984,167.679,4.075,0.934,6.345e7,272.208,406.312,0.518,0.518,0.324,0.053,0.141,0.011,0.043,-4.483e-4,0,0,0,0,-3.909e-5,0.04,13.081,134.391,88.475,0.016,2.183,11.81,955.698,338.456,0.05,0.137
2.99,506.27,314.828,-23.008,314.898,23.023,8.155,6.732e-4,8.155,0.005,6.632,0.834,28.61,-80.6,9.791,0.108,-9.629e-7,-0.556,0.002,2.532e4,3342,18.647,0.059,220.805,167.67,4.062,0.931,6.315e7,67.843,402.849,0.518,0.518,0.325,0.053,0.14,0.015,0.06,1.994e-4,0,0,0,0,-6.464e-6,0.04,13.081,134.391,88.524,0.011,2.086,11.709,953.908,338.395,0.049,0.138
3.04,521.979,313.547,-25.538,313.617,25.553,8.485,7.157e-4,8.485,0.005,6.587,0.86,28.61,-80.6,9.791,0.1,-1.616e-6,0.359,-0.003,2.532e4,3342,18.647,0.059,220.762,167.67,4.059,0.927,6.281e7,0,399.063,0.518,0.518,0.325,0.053,0.14,0.014,0.055,3.238e-4,0,0,0,0,2.725e-6,0.04,13.081,134.391,88.527,0.003,2.03,11.607,952.153,338.333,0.05,0.141
3.09,537.624,312.274,-25.394,312.343,25.404,8.814,7.584e-4,8.814,0.005,6.547,0.733,28.61,-80.6,9.791,0.068,4.999e-6,1.1,0.009,2.532e4,3342,18.647,0.059,220.809,167.67,4.062,0.923,6.248e7,0,395.323,0.518,0.518,0.326,0.053,0.139,0.009,0.038,1.584e-4,0,0,0,0,2.577e-5,0.04,13.081,134.391,88.487,-0.002,2.072,11.505,950.405,338.271,0.05,0.142
3.14,553.206,311.008,-25.256,311.076,25.259,9.14,8.003e-4,9.14,0.005,6.517,0.419,28.61,-80.6,9.791,0.011,-9.304e-6,-1.376,0.06,2.532e4,3342,18.647,0.059,220.954,167.67,4.073,0.92,6.216e7,0,391.617,0.518,0.518,0.327,0.053,0.139,0.002,0.006,4.59e-4,0,0,0,0,-4.067e-5,0.04,13.081,134.391,88.421,-0.006,1.98,11.404,948.664,338.21,0.05,0.145
3.19,568.725,309.749,-25.115,309.817,25.117,9.466,8.402e-4,9.466,0.005,6.501,0.314,28.61,-80.6,9.79,0.041,-1.59e-6,-1.092,0.01,2.532e4,3342,18.647,0.059,220.771,167.67,4.059,0.916,6.183e7,0,387.979,0.519,0.519,0.327,0.053,0.138,0.006,0.022,2.676e-4,0,0,0,0,-2.579e-5,0.04,13.081,134.391,88.358,-0.004,2.146,11.303,946.93,338.149,0.05,0.147
3.24,584.181,308.496,-24.977,308.565,24.977,9.79,8.787e-4,9.79,0.005,6.489,0.163,28.61,-80.6,9.79,0.081,-9.461e-7,-0.633,-1.083e-4,2.532e4,3342,18.647,0.059,220.551,167.67,4.043,0.913,6.151e7,0,384.374,0.519,0.519,0.328,0.053,0.138,0.011,0.045,-3.615e-7,0,0,0,0,-8.754e-6,0.04,13.081,134.391,88.314,-0.001,2.147,11.203,945.203,338.088,0.05,0.148
3.29,599.575,307.251,-24.837,307.319,24.837,10.115,9.168e-4,10.115,0.005,6.482,0.133,28.61,-80.6,9.79,0.089,-2.891e-7,0.114,0.004,2.532e4,3342,18.647,0.059,220.451,167.67,4.035,0.909,6.119e7,0,380.806,0.519,0.519,0.329,0.053,0.137,0.012,0.049,7.742e-5,0,0,0,0,2.843e-7,0.039,13.081,134.391,88.302,0.002,2.139,11.103,943.483,338.027,0.05,0.15
3.34,614.907,306.013,-24.694,306.081,24.695,10.439,9.549e-4,10.439,0.005,6.474,0.233,28.61,-80.6,9.79,0.062,-5.211e-6,0.733,-5.67e-4,2.532e4,3342,18.647,0.059,220.486,167.67,4.038,0.906,6.087e7,0,377.272,0.519,0.519,0.329,0.053,0.137,0.008,0.034,-4.181e-4,0,0,0,0,1.192e-5,0.039,13.081,134.391,88.325,0.004,2.142,11.003,941.77,337.967,0.05,0.151
3.39,630.176,304.782,-24.55,304.85,24.554,10.762,9.941e-4,10.762,0.005,6.457,0.434,28.61,-80.6,9.79,0.007,-4.136e-6,1.017,0.04,2.532e4,3342,18.647,0.059,220.629,167.67,4.049,0.902,6.055e7,0,373.78,0.519,0.519,0.33,0.053,0.136,8.772e-4,0.003,-3.541e-4,0,0,0,0,2.31e-5,0.039,13.081,134.391,88.372,0.01,2.177,10.904,940.064,337.907,0.05,0.153
3.44,645.385,303.558,-24.395,303.626,24.402,11.084,0.001,11.084,0.005,6.431,0.598,28.61,-80.6,9.79,0.041,0,-0.862,0.002,2.532e4,3342,18.647,0.059,220.432,167.67,4.033,0.899,6.024e7,0,369.97,0.519,0.519,0.33,0.053,0.136,0.006,0.023,-4.388e-4,0,0,0,0,-1.673e-5,0.039,13.081,134.391,88.422,0.015,2.161,10.805,938.365,337.847,0.05,0.154
3.49,660.532,302.342,-24.22,302.41,24.229,11.405,0.001,11.405,0.005,6.398,0.681,28.61,-80.6,9.79,0.067,-2.836e-6,-0.431,0.009,2.532e4,3342,18.647,0.059,220.268,167.67,4.021,0.895,5.993e7,0,365.595,0.517,0.517,0.331,0.052,0.135,0.009,0.037,-1.778e-4,0,0,0,0,-4.21e-6,0.039,13.081,134.391,88.455,0.012,2.119,10.707,936.673,337.787,0.05,0.156
3.54,675.619,301.136,-24.05,301.203,24.061,11.724,0.001,11.724,0.006,6.363,0.715,28.61,-80.6,9.79,0.078,-1.496e-6,0.141,0.011,2.532e4,3342,18.647,0.059,220.16,167.67,4.013,0.892,5.962e7,0,361.321,0.516,0.516,0.331,0.051,0.135,0.011,0.043,-4.212e-4,0,0,0,0,4.526e-7,0.039,13.081,134.391,88.462,2.545e-4,2.142,10.608,934.987,337.728,0.05,0.158
3.59,690.646,299.937,-23.887,300.004,23.895,12.041,0.001,12.041,0.006,6.329,0.606,28.61,-80.6,9.79,0.05,3.516e-7,0.653,0.016,2.532e4,3342,18.647,0.059,220.204,167.67,4.016,0.889,5.931e7,0,357.127,0.515,0.515,0.331,0.05,0.134,0.007,0.027,2.214e-4,0,0,0,0,9.853e-6,0.038,13.081,134.391,88.44,-0.016,2.099,10.511,933.308,337.668,0.05,0.16
3.64,705.613,298.747,-23.729,298.813,23.733,12.357,0.001,12.357,0.006,6.302,0.463,28.61,-80.6,9.79,0.01,-1.744e-6,0.865,0.066,2.532e4,3342,18.647,0.059,220.291,167.67,4.023,0.885,5.9e7,0,353.023,0.514,0.514,0.331,0.049,0.134,0.001,0.005,7.006e-5,0,0,0,0,1.741e-5,0.038,13.081,134.391,88.4,-0.021,2.088,10.414,931.636,337.609,0.05,0.161
3.69,720.521,297.564,-23.574,297.631,23.576,12.672,0.001,12.672,0.006,6.283,0.322,28.61,-80.6,9.79,0.031,-2.337e-6,-0.787,0.021,2.532e4,3342,18.647,0.059,220.149,167.67,4.012,0.882,5.87e7,0,349.006,0.513,0.513,0.331,0.048,0.133,0.004,0.016,3.911e-4,0,0,0,0,-1.454e-5,0.038,13.081,134.391,88.357,-0.016,2.087,10.317,929.971,337.551,0.05,0.163
3.74,735.37,296.389,-23.423,296.456,23.424,12.985,0.001,12.985,0.006,6.272,0.153,28.61,-80.6,9.79,0.079,-3.875e-6,-0.385,0.014,2.532e4,3342,18.647,0.059,219.906,167.67,3.993,0.879,5.84e7,0,345.062,0.512,0.512,0.332,0.047,0.133,0.011,0.042,2.136e-4,0,0,0,0,-3.508e-6,0.038,13.081,134.391,88.326,-0.007,1.974,10.22,928.312,337.492,0.05,0.164
3.79,750.16,295.222,-23.274,295.289,23.274,13.299,0.001,13.299,0.006,6.268,9.646e-4,28.61,-80.6,9.79,0.121,-2.456e-6,0.349,0.012,2.532e4,3342,18.647,0.059,219.686,167.67,3.976,0.875,5.81e7,0,341.187,0.511,0.511,0.332,0.047,0.132,0.016,0.065,-3.315e-4,0,0,0,0,2.896e-6,0.038,13.081,134.391,88.325,0.006,1.731,10.124,926.659,337.434,0.05,0.165
3.84,764.892,294.062,-23.119,294.129,23.12,13.612,0.001,13.612,0.006,6.266,0.165,28.61,-80.6,9.79,0.072,5.581e-7,1.115,0.02,2.532e4,3342,18.647,0.059,219.809,167.67,3.986,0.872,5.78e7,0,337.387,0.51,0.51,0.332,0.046,0.132,0.01,0.039,-1.774e-4,0,0,0,0,2.986e-5,0.038,13.081,134.391,88.364,0.023,1.765,10.028,925.013,337.376,0.05,0.167
3.89,779.566,292.91,-22.964,292.977,22.968,13.925,0.001,13.925,0.006,6.25,0.438,28.61,-80.6,9.79,0.011,-4.994e-6,-1.305,0.103,2.532e4,3342,18.647,0.059,219.979,167.67,3.999,0.869,5.751e7,0,333.665,0.509,0.509,0.332,0.045,0.132,0.001,0.006,2.303e-4,0,0,0,0,-4.119e-5,0.038,13.081,134.391,88.428,0.035,1.857,9.933,923.374,337.318,0.05,0.168
3.94,794.183,291.766,-22.815,291.832,22.823,14.237,0.001,14.237,0.006,6.223,0.626,28.61,-80.6,9.79,0.071,-3.962e-6,-1.006,0.018,2.532e4,3342,18.647,0.059,219.694,167.67,3.977,0.865,5.722e7,0,330.011,0.508,0.508,0.332,0.045,0.131,0.01,0.038,-3.233e-4,0,0,0,0,-2.467e-5,0.037,13.081,134.391,88.488,0.036,1.851,9.838,921.741,337.261,0.05,0.169
3.99,808.743,290.628,-22.671,290.694,22.682,14.547,0.001,14.547,0.006,6.189,0.713,28.61,-80.6,9.79,0.1,-5.284e-6,-0.402,0.017,2.532e4,3342,18.647,0.059,219.525,167.67,3.964,0.862,5.693e7,0,326.419,0.507,0.507,0.333,0.044,0.131,0.014,0.054,-1.674e-4,0,0,0,0,-3.963e-6,0.037,13.081,134.391,88.524,0.024,1.818,9.743,920.114,337.203,0.05,0.171
4.04,823.246,289.498,-22.53,289.564,22.543,14.856,0.002,14.856,0.006,6.152,0.751,28.61,-80.6,9.79,0.114,-2.052e-6,0.344,0.013,2.532e4,3342,18.647,0.059,219.417,167.67,3.956,0.859,5.664e7,0,322.893,0.506,0.506,0.333,0.043,0.13,0.015,0.061,-2.039e-4,0,0,0,0,2.933e-6,0.037,13.081,134.391,88.525,0.001,1.885,9.649,918.494,337.146,0.05,0.172
4.09,837.693,288.375,-22.394,288.44,22.406,15.163,0.002,15.163,0.006,6.115,0.718,28.61,-80.6,9.79,0.104,-1.097e-6,1.107,0.022,2.532e4,3342,18.647,0.059,219.397,167.67,3.954,0.856,5.636e7,0,319.427,0.506,0.506,0.333,0.043,0.13,0.014,0.056,-2.571e-4,0,0,0,0,3.058e-5,0.037,13.081,134.391,88.487,-0.024,2.029,9.555,916.88,337.089,0.05,0.174
4.14,852.084,287.259,-22.264,287.323,22.27,15.467,0.002,15.467,0.006,6.083,0.527,28.61,-80.6,9.79,0.044,-7.402e-6,1.634,0.053,2.532e4,3342,18.647,0.059,219.564,167.67,3.967,0.853,5.607e7,0,316.004,0.505,0.505,0.333,0.042,0.129,0.006,0.023,1.565e-4,0,0,0,0,6.719e-5,0.037,13.081,134.391,88.416,-0.039,2.079,9.461,915.272,337.033,0.05,0.175
4.19,866.419,286.149,-22.139,286.213,22.14,15.771,0.002,15.771,0.006,6.064,0.237,28.61,-80.6,9.79,0.048,-1.295e-6,-1.618,0.045,2.532e4,3342,18.647,0.059,219.491,167.67,3.961,0.85,5.579e7,0,312.637,0.504,0.504,0.333,0.042,0.129,0.006,0.026,3.637e-4,0,0,0,0,-6.636e-5,0.037,13.081,134.391,88.331,-0.037,2.019,9.368,913.67,336.976,0.05,0.176
4.24,880.699,285.045,-22.012,285.109,22.013,16.074,0.002,16.074,0.006,6.056,0.116,28.61,-80.6,9.79,0.089,7.368e-7,-1.12,0.016,2.532e4,3342,18.647,0.059,219.282,167.67,3.946,0.846,5.551e7,0,309.342,0.503,0.503,0.334,0.041,0.129,0.012,0.048,3.454e-4,0,0,0,0,-3.203e-5,0.037,13.081,134.391,88.261,-0.024,2.141,9.275,912.075,336.92,0.05,0.178
4.29,894.924,283.948,-21.887,284.012,21.887,16.377,0.002,16.377,0.006,6.053,0.039,28.61,-80.6,9.789,0.115,-4.187e-6,-0.466,0.017,2.532e4,3342,18.647,0.059,219.13,167.67,3.934,0.843,5.524e7,0,306.093,0.502,0.502,0.334,0.041,0.128,0.015,0.06,4.703e-5,0,0,0,0,-5.595e-6,0.036,13.081,134.391,88.221,-0.007,2.186,9.183,910.485,336.864,0.05,0.18
4.34,909.094,282.856,-21.762,282.921,21.762,16.679,0.002,16.679,0.006,6.053,0.024,28.61,-80.6,9.789,0.135,-1.982e-6,0.347,0.012,2.532e4,3342,18.647,0.059,219.003,167.67,3.924,0.84,5.496e7,0,302.881,0.502,0.502,0.334,0.04,0.128,0.018,0.071,-3.395e-4,0,0,0,0,3.132e-6,0.036,13.081,134.391,88.219,0.013,2.07,9.091,908.902,336.808,0.05,0.181
4.39,923.209,281.772,-21.633,281.837,21.633,16.982,0.002,16.982,0.006,6.052,0.069,28.61,-80.6,9.789,0.103,-2.736e-6,1.147,0.015,2.532e4,3342,18.647,0.059,219.066,167.67,3.929,0.837,5.469e7,0,299.71,0.501,0.501,0.334,0.04,0.127,0.014,0.055,-3.994e-4,0,0,0,0,3.44e-5,0.036,13.081,134.391,88.258,0.031,2.007,8.999,907.325,336.752,0.05,0.183
4.44,937.271,280.693,-21.503,280.758,21.505,17.284,0.002,17.284,0.006,6.043,0.297,28.61,-80.6,9.789,0.026,-1.87e-6,1.557,0.055,2.532e4,3342,18.647,0.059,219.302,167.67,3.947,0.834,5.441e7,0,296.59,0.5,0.5,0.334,0.039,0.127,0.003,0.013,1.487e-4,0,0,0,0,6.385e-5,0.036,13.081,134.391,88.329,0.04,2.025,8.908,905.754,336.697,0.05,0.185
4.49,951.279,279.621,-21.375,279.686,21.382,17.586,0.002,17.586,0.006,6.022,0.529,28.61,-80.6,9.789,0.055,-2.691e-6,-1.453,0.029,2.532e4,3342,18.647,0.059,219.139,167.67,3.935,0.831,5.414e7,0,293.527,0.5,0.5,0.335,0.039,0.127,0.007,0.029,-1.453e-5,0,0,0,0,-5.607e-5,0.036,13.081,134.391,88.407,0.032,2.035,8.817,904.189,336.642,0.05,0.187
4.54,965.233,278.556,-21.252,278.62,21.263,17.887,0.002,17.887,0.006,5.991,0.686,28.61,-80.6,9.789,0.112,-3.035e-6,-0.925,0.017,2.532e4,3342,18.647,0.059,218.876,167.67,3.914,0.828,5.388e7,0,290.513,0.499,0.499,0.335,0.038,0.126,0.015,0.059,8.691e-5,0,0,0,0,-2.29e-5,0.036,13.081,134.391,88.468,0.011,2.012,8.726,902.63,336.587,0.05,0.188
4.59,979.134,277.496,-21.133,277.56,21.146,18.185,0.002,18.185,0.006,5.955,0.743,28.61,-80.6,9.789,0.134,-1.816e-6,-0.164,0.01,2.532e4,3342,18.647,0.059,218.741,167.67,3.904,0.825,5.361e7,0,287.539,0.498,0.498,0.335,0.038,0.126,0.018,0.07,-2.954e-4,0,0,0,0,-7.235e-7,0.036,13.081,134.391,88.495,-0.014,1.992,8.636,901.077,336.532,0.05,0.19
4.64,992.983,276.442,-21.019,276.506,21.029,18.482,0.002,18.482,0.006,5.919,0.665,28.61,-80.6,9.789,0.11,-2.067e-6,0.602,0.011,2.532e4,3342,18.647,0.059,218.779,167.67,3.907,0.822,5.334e7,0,284.594,0.498,0.498,0.335,0.037,0.125,0.015,0.057,4.043e-4,0,0,0,0,9.861e-6,0.035,13.081,134.391,88.483,-0.033,1.937,8.546,899.53,336.478,0.05,0.192
4.69,1006.779,275.394,-20.908,275.457,20.914,18.777,0.002,18.777,0.006,5.889,0.538,28.61,-80.6,9.789,0.067,-5.054e-6,1.127,0.015,2.532e4,3342,18.647,0.059,218.888,167.67,3.915,0.819,5.308e7,0,281.706,0.497,0.497,0.335,0.037,0.125,0.009,0.035,3.838e-4,0,0,0,0,3.477e-5,0.035,13.081,134.391,88.437,-0.036,1.944,8.456,898.025,336.423,0.05,0.193
4.74,1020.522,274.351,-20.799,274.414,20.803,19.071,0.002,19.071,0.006,5.865,0.421,28.61,-80.6,9.789,0.025,-6.502e-7,1.404,0.049,2.532e4,3342,18.647,0.059,218.996,167.67,3.924,0.816,5.283e7,0,278.878,0.497,0.497,0.335,0.037,0.125,0.003,0.013,-4.544e-4,0,0,0,0,5.435e-5,0.035,13.081,134.391,88.372,-0.027,2.049,8.367,896.563,336.369,0.05,0.194
4.79,1034.214,273.314,-20.695,273.377,20.696,19.364,0.002,19.364,0.006,5.85,0.189,28.61,-80.6,9.789,0.058,-1.264e-6,-1.331,0.02,2.532e4,3342,18.647,0.059,218.823,167.67,3.91,0.813,5.257e7,0,276.083,0.496,0.496,0.336,0.036,0.124,0.008,0.03,4.301e-5,0,0,0,0,-4.925e-5,0.035,13.081,134.391,88.301,-0.013,1.974,8.278,895.106,336.315,0.05,0.196
4.84,1047.854,272.282,-20.591,272.345,20.591,19.656,0.002,19.656,0.006,5.844,0.055,28.61,-80.6,9.789,0.107,-2.976e-6,-0.812,0.014,2.532e4,3342,18.647,0.059,218.591,167.67,3.893,0.81,5.232e7,0,273.336,0.495,0.495,0.336,0.036,0.124,0.014,0.056,2.765e-4,0,0,0,0,-1.846e-5,0.035,13.081,134.391,88.246,0.005,1.977,8.189,893.655,336.261,0.05,0.197
4.89,1061.442,271.255,-20.485,271.318,20.485,19.948,0.002,19.948,0.006,5.843,0.015,28.61,-80.6,9.789,0.122,-2.562e-6,-0.156,0.014,2.532e4,3342,18.647,0.059,218.485,167.67,3.885,0.807,5.207e7,0,270.622,0.495,0.495,0.336,0.035,0.123,0.016,0.063,-4.404e-4,0,0,0,0,-6.891e-7,0.035,13.081,134.391,88.222,0.024,1.995,8.101,892.21,336.208,0.05,0.198
4.94,1074.979,270.233,-20.378,270.297,20.378,20.24,0.002,20.24,0.006,5.842,0.051,28.61,-80.6,9.789,0.109,-3.461e-6,0.509,0.011,2.532e4,3342,18.647,0.059,218.486,167.67,3.885,0.804,5.181e7,0,267.937,0.494,0.494,0.336,0.035,0.123,0.014,0.056,-7.05e-5,0,0,0,0,7.364e-6,0.035,13.081,134.391,88.232,0.041,1.986,8.013,890.77,336.155,0.05,0.2
4.99,1088.466,269.217,-20.269,269.281,20.27,20.532,0.002,20.532,0.006,5.837,0.153,28.61,-80.6,9.789,0.07,6.796e-7,1.026,0.023,2.532e4,3342,18.647,0.059,218.581,167.67,3.892,0.801,5.157e7,0,265.283,0.494,0.494,0.336,0.035,0.123,0.009,0.036,-1.769e-4,0,0,0,0,3.016e-5,0.034,13.081,134.391,88.272,0.051,1.957,7.925,889.335,336.101,0.05,0.201
5.04,1101.901,268.207,-20.162,268.27,20.164,20.824,0.002,20.824,0.006,5.826,0.29,28.61,-80.6,9.789,0.017,3.325e-7,1.267,0.101,2.532e4,3342,18.647,0.059,218.733,167.67,3.904,0.798,5.132e7,0,262.664,0.493,0.493,0.336,0.034,0.122,0.002,0.008,-4.078e-4,0,0,0,0,4.636e-5,0.034,13.081,134.391,88.331,0.055,1.915,7.838,887.906,336.049,0.05,0.203
5.09,1115.286,267.201,-20.056,267.264,20.06,21.115,0.002,21.115,0.007,5.808,0.414,28.61,-80.6,9.789,0.034,0,-1.219,0.046,2.532e4,3342,18.647,0.059,218.623,167.67,3.895,0.796,5.107e7,0,260.082,0.493,0.493,0.337,0.034,0.122,0.004,0.017,8.085e-5,0,0,0,0,-4.322e-5,0.034,13.081,134.391,88.395,0.052,1.841,7.751,886.483,335.996,0.05,0.204
5.14,1128.621,266.201,-19.953,266.264,19.959,21.405,0.002,21.405,0.007,5.784,0.523,28.61,-80.6,9.789,0.078,-1.355e-6,-0.915,0.019,2.532e4,3342,18.647,0.059,218.41,167.67,3.879,0.793,5.083e7,0,257.538,0.492,0.492,0.337,0.034,0.122,0.01,0.04,-2.64e-4,0,0,0,0,-2.455e-5,0.034,13.081,134.391,88.449,0.038,1.791,7.664,885.064,335.943,0.05,0.205
5.19,1141.907,265.206,-19.851,265.268,19.861,21.693,0.003,21.693,0.007,5.755,0.638,28.61,-80.6,9.789,0.124,-1.177e-6,-0.368,0.012,2.532e4,3342,18.647,0.059,218.195,167.67,3.862,0.79,5.058e7,0,255.036,0.492,0.492,0.337,0.033,0.121,0.016,0.064,-2.415e-5,0,0,0,0,-4.002e-6,0.034,13.081,134.391,88.482,0.017,1.853,7.578,883.651,335.891,0.05,0.207
5.24,1155.142,264.216,-19.754,264.278,19.762,21.98,0.003,21.98,0.007,5.724,0.553,28.61,-80.6,9.789,0.095,-1.517e-6,0.257,0.016,2.532e4,3342,18.647,0.059,218.257,167.67,3.867,0.787,5.034e7,0,252.54,0.491,0.491,0.337,0.033,0.121,0.013,0.048,-2.129e-4,0,0,0,0,1.968e-6,0.034,13.081,134.391,88.484,-0.009,1.708,7.492,882.243,335.839,0.05,0.208
5.29,1168.328,263.23,-19.66,263.292,19.665,22.266,0.003,22.266,0.007,5.699,0.46,28.61,-80.6,9.789,0.06,0,0.639,0.02,2.532e4,3342,18.647,0.059,218.339,167.67,3.873,0.784,5.01e7,0,250.083,0.491,0.491,0.337,0.033,0.121,0.008,0.031,-2.249e-4,0,0,0,0,1.225e-5,0.034,13.081,134.391,88.46,-0.029,1.654,7.406,880.84,335.787,0.05,0.21
5.34,1181.465,262.25,-19.566,262.311,19.57,22.55,0.003,22.55,0.007,5.678,0.391,28.61,-80.6,9.789,0.033,7.494e-7,0.889,0.04,2.532e4,3342,18.647,0.059,218.394,167.67,3.878,0.781,4.986e7,0,247.664,0.49,0.49,0.337,0.033,0.12,0.004,0.017,1.382e-4,0,0,0,0,2.387e-5,0.034,13.081,134.391,88.42,-0.037,1.706,7.32,879.443,335.735,0.05,0.211
5.39,1194.553,261.274,-19.474,261.335,19.476,22.834,0.003,22.834,0.007,5.661,0.296,28.61,-80.6,9.789,0.005,-3.506e-6,-0.944,0.256,2.532e4,3342,18.647,0.059,218.456,167.67,3.882,0.779,4.963e7,0,245.275,0.49,0.49,0.338,0.032,0.12,6.553e-4,0.003,2.9e-4,0,0,0,0,-2.711e-5,0.033,13.081,134.391,88.372,-0.033,1.738,7.235,878.051,335.684,0.05,0.212
5.44,1207.593,260.302,-19.381,260.364,19.383,23.116,0.003,23.116,0.007,5.647,0.289,28.61,-80.6,9.789,0.01,-1.096e-6,-0.912,0.084,2.532e4,3342,18.647,0.059,218.394,167.67,3.878,0.776,4.939e7,0,242.925,0.489,0.489,0.338,0.032,0.12,0.001,0.005,1.019e-4,0,0,0,0,-2.549e-5,0.033,13.081,134.391,88.325,-0.018,1.921,7.151,876.664,335.632,0.05,0.214
5.49,1220.584,259.336,-19.292,259.397,19.293,23.398,0.003,23.398,0.007,5.634,0.178,28.61,-80.6,9.788,0.055,-2.368e-6,-0.785,0.019,2.532e4,3342,18.647,0.059,218.183,167.67,3.862,0.773,4.916e7,0,240.593,0.489,0.489,0.338,0.032,0.119,0.007,0.028,-1.197e-5,0,0,0,0,-1.904e-5,0.033,13.081,134.391,88.281,0.004,1.897,7.066,875.282,335.581,0.05,0.215
5.54,1233.526,258.373,-19.204,258.434,19.205,23.68,0.003,23.68,0.007,5.628,0.08,28.61,-80.6,9.788,0.094,-2.186e-6,-0.392,0.014,2.532e4,3342,18.647,0.059,217.992,167.67,3.847,0.77,4.892e7,0,238.288,0.488,0.488,0.338,0.031,0.119,0.012,0.048,3.059e-4,0,0,0,0,-4.789e-6,0.033,13.081,134.391,88.251,0.03,1.828,6.982,873.905,335.53,0.05,0.216
5.59,1246.421,257.415,-19.114,257.477,19.115,23.961,0.003,23.961,0.007,5.625,0.082,28.61,-80.6,9.788,0.094,-1.71e-6,0.089,0.011,2.532e4,3342,18.647,0.059,217.952,167.67,3.844,0.768,4.869e7,0,236.012,0.488,0.488,0.338,0.031,0.119,0.012,0.048,-2.045e-4,0,0,0,0,2.486e-7,0.033,13.081,134.391,88.244,0.051,1.844,6.898,872.534,335.479,0.05,0.218
5.64,1259.268,256.462,-19.024,256.523,19.024,24.242,0.003,24.242,0.007,5.62,0.125,28.61,-80.6,9.788,0.075,-1.386e-6,0.501,0.018,2.532e4,3342,18.647,0.059,217.977,167.67,3.846,0.765,4.846e7,0,233.759,0.487,0.488,0.338,0.031,0.118,0.01,0.038,2.87e-5,0,0,0,0,7.907e-6,0.033,13.081,134.391,88.26,0.064,1.835,6.815,871.167,335.429,0.05,0.219
5.69,1272.067,255.513,-18.933,255.574,18.934,24.523,0.003,24.523,0.007,5.611,0.222,28.61,-80.6,9.788,0.034,-1.786e-6,0.782,0.033,2.532e4,3342,18.647,0.059,218.089,167.67,3.854,0.762,4.823e7,0,231.533,0.487,0.487,0.338,0.031,0.118,0.004,0.017,9.231e-5,0,0,0,0,1.946e-5,0.033,13.081,134.391,88.293,0.065,1.854,6.732,869.806,335.378,0.05,0.221
5.74,1284.819,254.568,-18.842,254.63,18.846,24.803,0.003,24.803,0.008,5.597,0.355,28.61,-80.6,9.788,0.024,-2.842e-6,-0.809,0.053,2.532e4,3342,18.647,0.059,218.084,167.67,3.854,0.759,4.8e7,0,229.339,0.487,0.487,0.339,0.03,0.118,0.003,0.013,-2.253e-5,0,0,0,0,-2.095e-5,0.033,13.081,134.391,88.335,0.052,1.917,6.649,868.449,335.328,0.05,0.222
5.79,1297.524,253.628,-18.753,253.69,18.759,25.083,0.003,25.083,0.008,5.576,0.467,28.61,-80.6,9.788,0.074,-1.633e-6,-0.565,0.02,2.532e4,3342,18.647,0.059,217.858,167.67,3.837,0.757,4.778e7,0,227.174,0.486,0.486,0.339,0.03,0.117,0.01,0.037,3.974e-4,0,0,0,0,-1.03e-5,0.032,13.081,134.391,88.37,0.028,1.973,6.566,867.098,335.278,0.05,0.223
5.84,1310.182,252.693,-18.668,252.754,18.675,25.361,0.003,25.361,0.008,5.551,0.513,28.61,-80.6,9.788,0.096,-1.032e-6,-0.159,0.012,2.532e4,3342,18.647,0.059,217.736,167.67,3.827,0.754,4.755e7,0,225.03,0.486,0.486,0.339,0.03,0.117,0.013,0.048,7.097e-6,0,0,0,0,-8.192e-7,0.032,13.081,134.391,88.388,2.582e-5,1.984,6.484,865.751,335.228,0.05,0.225
5.89,1322.793,251.762,-18.585,251.822,18.59,25.638,0.004,25.638,0.008,5.526,0.463,28.61,-80.6,9.788,0.077,-1.33e-6,0.261,0.015,2.532e4,3342,18.647,0.059,217.766,167.67,3.83,0.751,4.733e7,0,222.901,0.485,0.485,0.339,0.03,0.117,0.01,0.039,2.464e-4,0,0,0,0,2.235e-6,0.032,13.081,134.391,88.385,-0.022,1.909,6.402,864.41,335.178,0.05,0.226
5.94,1335.358,250.835,-18.502,250.895,18.508,25.914,0.004,25.914,0.008,5.504,0.451,28.61,-80.6,9.788,0.072,-1.496e-6,0.589,0.02,2.532e4,3342,18.647,0.059,217.744,167.67,3.828,0.749,4.711e7,0,220.807,0.485,0.485,0.339,0.029,0.116,0.009,0.036,2.806e-4,0,0,0,0,1.144e-5,0.032,13.081,134.391,88.363,-0.036,1.978,6.32,863.073,335.129,0.05,0.228
5.99,1347.877,249.911,-18.422,249.972,18.426,26.188,0.004,26.188,0.008,5.482,0.389,28.61,-80.6,9.788,0.045,-6.258e-7,0.872,0.025,2.532e4,3342,18.647,0.059,217.804,167.67,3.833,0.746,4.689e7,0,218.733,0.485,0.485,0.339,0.029,0.116,0.006,0.022,-2.402e-4,0,0,0,0,2.53e-5,0.032,13.081,134.391,88.326,-0.038,2.017,6.239,861.742,335.08,0.05,0.238
6.04,1360.35,248.992,-18.344,249.052,18.346,26.462,0.004,26.462,0.008,5.465,0.288,28.61,-80.6,9.788,0.001,0,-0.257,0.939,2.532e4,3342,18.647,0.059,217.927,167.67,3.842,0.744,4.667e7,0,216.68,0.484,0.484,0.339,0.029,0.116,1.471e-4,9.729e-4,3.708e-4,0,0,0,0,-2.218e-6,0.032,13.081,134.391,88.279,-0.028,2.013,6.158,860.415,335.03,0.05,0.243
6.09,1372.776,248.077,-18.266,248.137,18.267,26.735,0.004,26.735,0.008,5.453,0.221,28.61,-80.6,9.788,0.032,4.802e-7,-0.892,0.026,2.532e4,3342,18.647,0.059,217.774,167.67,3.83,0.741,4.645e7,0,214.656,0.484,0.484,0.34,0.029,0.115,0.004,0.016,4.033e-4,0,0,0,0,-2.682e-5,0.032,13.081,134.391,88.231,-0.008,2.067,6.077,859.093,334.982,0.05,0.246
6.14,1385.157,247.166,-18.189,247.226,18.189,27.007,0.004,27.007,0.008,5.444,0.159,28.61,-80.6,9.788,0.06,-2.771e-6,-0.686,0.014,2.532e4,3342,18.647,0.059,217.628,167.67,3.819,0.738,4.623e7,0,212.654,0.483,0.483,0.34,0.029,0.115,0.008,0.03,-1.962e-4,0,0,0,0,-1.598e-5,0.032,13.081,134.391,88.191,0.014,2.097,5.996,857.776,334.933,0.05,0.248
6.19,1397.493,246.258,-18.112,246.318,18.112,27.279,0.004,27.279,0.008,5.437,0.108,28.61,-80.6,9.788,0.084,-2.411e-6,-0.369,0.011,2.532e4,3342,18.647,0.059,217.503,167.67,3.81,0.736,4.601e7,0,210.673,0.483,0.483,0.34,0.028,0.115,0.011,0.042,4.392e-4,0,0,0,0,-4.67e-6,0.032,13.081,134.391,88.165,0.035,2.089,5.916,856.464,334.884,0.05,0.25
6.24,1409.783,245.355,-18.035,245.415,18.035,27.551,0.004,27.551,0.008,5.432,0.08,28.61,-80.6,9.788,0.096,-2.049e-6,0.033,0.004,2.532e4,3342,18.647,0.059,217.419,167.67,3.803,0.733,4.58e7,0,208.711,0.483,0.483,0.34,0.028,0.115,0.013,0.048,-4.565e-4,0,0,0,0,3.827e-8,0.031,13.081,134.391,88.157,0.046,2.048,5.836,855.156,334.836,0.05,0.252
6.29,1422.028,244.455,-17.958,244.515,17.958,27.822,0.004,27.822,0.009,5.428,0.108,28.61,-80.6,9.788,0.083,-2.002e-6,0.43,0.004,2.532e4,3342,18.647,0.059,217.43,167.67,3.804,0.731,4.558e7,0,206.769,0.482,0.482,0.34,0.028,0.114,0.011,0.041,-4.307e-4,0,0,0,0,6.437e-6,0.031,13.081,134.391,88.169,0.05,2.031,5.757,853.854,334.788,0.05,0.254
6.34,1434.229,243.559,-17.879,243.619,17.88,28.094,0.004,28.094,0.009,5.421,0.176,28.61,-80.6,9.788,0.05,-4.386e-7,0.722,0.011,2.532e4,3342,18.647,0.059,217.515,167.67,3.81,0.728,4.537e7,0,204.848,0.482,0.482,0.34,0.028,0.114,0.007,0.025,-8.226e-5,0,0,0,0,1.827e-5,0.031,13.081,134.391,88.199,0.047,2.028,5.678,852.556,334.739,0.05,0.256
6.39,1446.384,242.667,-17.802,242.727,17.804,28.365,0.004,28.365,0.009,5.41,0.245,28.61,-80.6,9.788,0.015,-2.721e-6,0.854,0.031,2.532e4,3342,18.647,0.059,217.607,167.67,3.817,0.725,4.516e7,0,202.947,0.482,0.482,0.34,0.028,0.114,0.002,0.007,2.689e-4,0,0,0,0,2.569e-5,0.031,13.081,134.391,88.239,0.036,1.988,5.599,851.263,334.692,0.05,0.258
6.44,1458.495,241.779,-17.726,241.839,17.728,28.635,0.004,28.635,0.009,5.397,0.304,28.61,-80.6,9.788,0.016,-1.565e-6,-0.85,0.016,2.532e4,3342,18.647,0.059,217.566,167.67,3.814,0.723,4.495e7,0,201.066,0.481,0.481,0.341,0.027,0.113,0.002,0.008,4.856e-4,0,0,0,0,-2.568e-5,0.031,13.081,134.391,88.283,0.02,1.923,5.52,849.975,334.644,0.05,0.259
6.49,1470.562,240.894,-17.651,240.954,17.654,28.904,0.005,28.904,0.009,5.38,0.37,28.61,-80.6,9.788,0.051,-9.401e-7,-0.717,0.001,2.532e4,3342,18.647,0.059,217.401,167.67,3.802,0.72,4.474e7,0,199.209,0.481,0.481,0.341,0.027,0.113,0.007,0.025,3.129e-4,0,0,0,0,-1.838e-5,0.031,13.081,134.391,88.322,0.005,1.891,5.441,848.691,334.596,0.05,0.261
6.54,1482.585,240.013,-17.576,240.073,17.582,29.173,0.005,29.173,0.009,5.36,0.433,28.61,-80.6,9.788,0.084,-1.44e-6,-0.441,0.001,2.532e4,3342,18.647,0.059,217.242,167.67,3.79,0.718,4.453e7,0,197.376,0.481,0.481,0.341,0.027,0.113,0.011,0.042,3.466e-4,0,0,0,0,-6.996e-6,0.031,13.081,134.391,88.352,-0.006,1.902,5.363,847.412,334.549,0.05,0.263
6.59,1494.564,239.136,-17.504,239.196,17.51,29.44,0.005,29.44,0.009,5.337,0.471,28.61,-80.6,9.788,0.104,-1.688e-6,-0.045,-1.704e-4,2.532e4,3342,18.647,0.059,217.132,167.67,3.781,0.715,4.432e7,0,195.563,0.48,0.48,0.341,0.027,0.113,0.014,0.052,-7.535e-6,0,0,0,0,-7.507e-8,0.031,13.081,134.391,88.364,-0.012,1.932,5.285,846.138,334.502,0.05,0.265
6.64,1506.499,238.263,-17.432,238.322,17.439,29.706,0.005,29.706,0.009,5.312,0.497,28.61,-80.6,9.788,0.118,-2.19e-6,0.407,0.001,2.532e4,3342,18.647,0.059,217.046,167.67,3.775,0.713,4.412e7,0,193.78,0.48,0.48,0.341,0.027,0.112,0.015,0.059,3.903e-4,0,0,0,0,6.062e-6,0.031,13.081,134.391,88.355,-0.013,2.025,5.208,844.902,334.455,0.05,0.267
6.69,1518.39,237.393,-17.364,237.452,17.369,29.971,0.005,29.971,0.009,5.289,0.444,28.61,-80.6,9.788,0.093,-6.859e-7,0.846,0.005,2.532e4,3342,18.647,0.059,217.104,167.67,3.779,0.71,4.392e7,0,192.012,0.48,0.48,0.341,0.026,0.112,0.012,0.046,-4.764e-4,0,0,0,0,2.636e-5,0.03,13.081,134.391,88.323,-0.01,2.047,5.13,843.699,334.408,0.05,0.269
6.74,1530.238,236.527,-17.297,236.585,17.301,30.235,0.005,30.235,0.009,5.269,0.348,28.61,-80.6,9.788,0.045,-1.801e-6,1.122,0.013,2.532e4,3342,18.647,0.059,217.245,167.67,3.79,0.708,4.372e7,0,190.262,0.479,0.479,0.341,0.026,0.112,0.006,0.022,-1.103e-5,0,0,0,0,4.669e-5,0.03,13.081,134.391,88.272,-0.006,2.047,5.053,842.499,334.361,0.05,0.271
6.79,1542.043,235.663,-17.232,235.722,17.234,30.498,0.005,30.498,0.01,5.254,0.257,28.61,-80.6,9.787,0.003,0,-1.187,0.166,2.532e4,3342,18.647,0.059,217.367,167.67,3.799,0.705,4.352e7,0,188.534,0.479,0.479,0.341,0.026,0.111,3.488e-4,8.81e-4,1.473e-4,0,0,0,0,-5.266e-5,0.03,13.081,134.391,88.213,1.856e-4,2.083,4.977,841.305,334.315,0.05,0.274
6.84,1553.804,234.803,-17.168,234.862,17.168,30.761,0.005,30.761,0.01,5.244,0.142,28.61,-80.6,9.787,0.063,3.785e-7,-1.076,0.006,2.532e4,3342,18.647,0.059,217.111,167.67,3.78,0.703,4.332e7,0,186.824,0.479,0.479,0.342,0.026,0.111,0.008,0.031,-3.702e-4,0,0,0,0,-4.359e-5,0.03,13.081,134.391,88.155,0.008,2.058,4.9,840.114,334.268,0.05,0.275
6.89,1565.523,233.947,-17.102,234.005,17.103,31.023,0.005,31.023,0.01,5.238,0.109,28.61,-80.6,9.787,0.082,-4.768e-7,-0.778,0.002,2.532e4,3342,18.647,0.059,217.007,167.67,3.772,0.7,4.312e7,0,185.138,0.478,0.478,0.342,0.026,0.111,0.011,0.04,4.205e-4,0,0,0,0,-2.298e-5,0.03,13.081,134.391,88.109,0.017,2.152,4.824,838.928,334.222,0.05,0.277
6.94,1577.199,233.093,-17.037,233.152,17.038,31.284,0.005,31.284,0.01,5.233,0.077,28.61,-80.6,9.787,0.099,-1.092e-6,-0.451,0.001,2.532e4,3342,18.647,0.059,216.91,167.67,3.764,0.698,4.292e7,0,183.466,0.478,0.478,0.342,0.026,0.111,0.013,0.048,-1.028e-5,0,0,0,0,-7.763e-6,0.03,13.081,134.391,88.078,0.023,2.185,4.748,837.746,334.176,0.05,0.279
6.99,1588.833,232.243,-16.973,232.302,16.973,31.546,0.005,31.546,0.01,5.231,0.036,28.61,-80.6,9.787,0.12,-2.067e-6,-0.032,0.006,2.532e4,3342,18.647,0.059,216.798,167.67,3.756,0.695,4.273e7,0,181.806,0.478,0.478,0.342,0.025,0.11,0.016,0.059,1.989e-4,0,0,0,0,-3.998e-8,0.03,13.081,134.391,88.066,0.028,2.122,4.673,836.569,334.13,0.05,0.281
7.04,1600.424,231.396,-16.907,231.455,16.908,31.808,0.006,31.808,0.01,5.229,0.054,28.61,-80.6,9.787,0.11,-2.459e-6,0.412,0.002,2.532e4,3342,18.647,0.059,216.801,167.67,3.756,0.693,4.253e7,0,180.162,0.477,0.477,0.342,0.025,0.11,0.014,0.054,-4.849e-5,0,0,0,0,6.595e-6,0.03,13.081,134.391,88.076,0.03,2.098,4.597,835.396,334.085,0.05,0.283
7.09,1611.972,230.552,-16.84,230.611,16.841,32.069,0.006,32.069,0.01,5.224,0.146,28.61,-80.6,9.787,0.061,-2.138e-6,0.744,0.002,2.532e4,3342,18.647,0.059,216.949,167.67,3.767,0.691,4.234e7,0,178.535,0.477,0.477,0.342,0.025,0.11,0.008,0.03,-1.888e-4,0,0,0,0,2.163e-5,0.03,13.081,134.391,88.106,0.03,2.157,4.522,834.227,334.039,0.05,0.285
7.14,1623.479,229.712,-16.772,229.771,16.775,32.33,0.006,32.33,0.01,5.213,0.272,28.61,-80.6,9.787,0.009,-2.099e-6,-0.838,0.041,2.532e4,3342,18.647,0.059,217.11,167.67,3.779,0.688,4.215e7,0,176.93,0.477,0.477,0.342,0.025,0.11,0.001,0.004,6.078e-5,0,0,0,0,-2.762e-5,0.029,13.081,134.391,88.147,0.025,2.258,4.447,833.062,333.994,0.05,0.288
7.19,1634.943,228.875,-16.707,228.934,16.711,32.59,0.006,32.59,0.01,5.198,0.335,28.61,-80.6,9.787,0.046,-2.901e-6,-0.724,0.009,2.532e4,3342,18.647,0.059,216.94,167.67,3.766,0.686,4.196e7,0,175.337,0.476,0.477,0.342,0.025,0.109,0.006,0.022,-7.569e-5,0,0,0,0,-2.08e-5,0.029,13.081,134.391,88.187,0.018,2.234,4.373,831.902,333.949,0.05,0.289
7.24,1646.366,228.041,-16.645,228.1,16.648,32.85,0.006,32.85,0.01,5.181,0.346,28.61,-80.6,9.787,0.055,0,-0.544,-3.345e-4,2.532e4,3342,18.647,0.059,216.874,167.67,3.761,0.683,4.176e7,0,173.755,0.476,0.476,0.343,0.025,0.109,0.007,0.027,-7.519e-5,0,0,0,0,-1.181e-5,0.029,13.081,134.391,88.219,0.009,2.132,4.299,830.745,333.904,0.05,0.291
7.29,1657.748,227.211,-16.582,227.269,16.586,33.108,0.006,33.108,0.01,5.162,0.393,28.61,-80.6,9.787,0.083,-1.268e-6,-0.309,0.002,2.532e4,3342,18.647,0.059,216.739,167.67,3.751,0.681,4.157e7,0,172.197,0.476,0.476,0.343,0.025,0.109,0.011,0.04,-3.994e-4,0,0,0,0,-3.834e-6,0.029,13.081,134.391,88.24,8.925e-4,2.15,4.225,829.593,333.859,0.05,0.293
7.34,1669.087,226.383,-16.521,226.441,16.525,33.366,0.006,33.366,0.01,5.143,0.378,28.61,-80.6,9.787,0.078,-1.24e-6,-0.003,7.552e-4,2.532e4,3342,18.647,0.059,216.727,167.67,3.75,0.679,4.138e7,0,170.648,0.476,0.476,0.343,0.024,0.108,0.01,0.038,5.27e-5,0,0,0,0,0,0.029,13.081,134.391,88.248,-0.005,2.091,4.151,828.446,333.814,0.05,0.295
7.39,1680.386,225.558,-16.46,225.617,16.465,33.622,0.006,33.622,0.011,5.124,0.375,28.61,-80.6,9.787,0.077,-1.562e-6,0.257,0.002,2.532e4,3342,18.647,0.059,216.697,167.67,3.748,0.676,4.12e7,0,169.118,0.475,0.475,0.343,0.024,0.108,0.01,0.038,4.599e-5,0,0,0,0,2.689e-6,0.029,13.081,134.391,88.241,-0.009,2.107,4.077,827.302,333.77,0.05,0.297
7.44,1691.643,224.737,-16.401,224.795,16.405,33.878,0.006,33.878,0.011,5.106,0.337,28.61,-80.6,9.787,0.057,-2.128e-6,0.505,0.003,2.532e4,3342,18.647,0.059,216.741,167.67,3.751,0.674,4.101e7,0,167.601,0.475,0.475,0.343,0.024,0.108,0.007,0.028,-3.632e-4,0,0,0,0,1.047e-5,0.029,13.081,134.391,88.222,-0.008,2.094,4.004,826.163,333.726,0.05,0.3
7.49,1702.86,223.918,-16.343,223.976,16.346,34.133,0.006,34.133,0.011,5.09,0.296,28.61,-80.6,9.787,0.034,-1.485e-6,0.657,0.007,2.532e4,3342,18.647,0.059,216.795,167.67,3.755,0.671,4.082e7,0,166.1,0.475,0.475,0.343,0.024,0.108,0.004,0.017,-4.502e-4,0,0,0,0,1.785e-5,0.029,13.081,134.391,88.192,-0.004,2.109,3.931,825.027,333.681,0.05,0.302
7.54,1714.035,223.103,-16.287,223.16,16.288,34.387,0.006,34.387,0.011,5.077,0.231,28.61,-80.6,9.787,0.004,-1.682e-6,-0.706,0.095,2.532e4,3342,18.647,0.059,216.877,167.67,3.762,0.669,4.064e7,0,164.613,0.475,0.475,0.343,0.024,0.107,4.56e-4,0.001,-2.241e-4,0,0,0,0,-2.081e-5,0.029,13.081,134.391,88.157,8.341e-4,2.085,3.859,823.896,333.637,0.05,0.304
7.59,1725.17,222.29,-16.229,222.347,16.231,34.641,0.007,34.641,0.011,5.066,0.217,28.61,-80.6,9.787,0.013,-1.079e-6,-0.67,0.016,2.532e4,3342,18.647,0.059,216.812,167.67,3.757,0.667,4.045e7,0,163.146,0.474,0.474,0.343,0.024,0.107,0.002,0.006,1.157e-4,0,0,0,0,-1.887e-5,0.028,13.081,134.391,88.122,0.007,2.17,3.786,822.769,333.593,0.05,0.305
7.64,1736.264,221.48,-16.173,221.537,16.174,34.894,0.007,34.894,0.011,5.056,0.156,28.61,-80.6,9.787,0.049,-1.027e-6,-0.589,0.005,2.532e4,3342,18.647,0.059,216.651,167.67,3.744,0.664,4.027e7,0,161.689,0.474,0.474,0.343,0.024,0.107,0.006,0.024,-3.61e-4,0,0,0,0,-1.466e-5,0.028,13.081,134.391,88.091,0.014,2.138,3.714,821.646,333.55,0.05,0.307
7.69,1747.318,220.672,-16.116,220.73,16.117,35.146,0.007,35.146,0.011,5.049,0.171,28.61,-80.6,9.787,0.041,-2.356e-6,-0.411,0.006,2.532e4,3342,18.647,0.059,216.65,167.67,3.744,0.662,4.009e7,0,160.251,0.474,0.474,0.344,0.023,0.107,0.005,0.019,2.846e-4,0,0,0,0,-7.216e-6,0.028,13.081,134.391,88.066,0.022,2.246,3.642,820.528,333.506,0.05,0.309
7.74,1758.332,219.868,-16.06,219.926,16.061,35.399,0.007,35.399,0.011,5.04,0.152,28.61,-80.6,9.787,0.052,-6.385e-7,-0.278,-0.002,2.532e4,3342,18.647,0.059,216.578,167.67,3.739,0.66,3.991e7,0,158.823,0.473,0.473,0.344,0.023,0.107,0.007,0.026,7.183e-5,0,0,0,0,-3.327e-6,0.028,13.081,134.391,88.048,0.027,2.251,3.571,819.413,333.463,0.05,0.312
7.79,1769.305,219.066,-16.003,219.124,16.004,35.651,0.007,35.651,0.011,5.032,0.189,28.61,-80.6,9.787,0.031,-9.822e-7,-0.127,-0.003,2.532e4,3342,18.647,0.059,216.629,167.67,3.743,0.657,3.973e7,0,157.412,0.473,0.473,0.344,0.023,0.106,0.004,0.015,-3.518e-4,0,0,0,0,-6.958e-7,0.028,13.081,134.391,88.039,0.03,2.353,3.5,818.302,333.42,0.05,0.315
7.84,1780.238,218.268,-15.948,218.325,15.949,35.902,0.007,35.902,0.011,5.023,0.183,28.61,-80.6,9.787,0.033,-1.246e-6,-0.042,3.43e-4,2.532e4,3342,18.647,0.059,216.59,167.67,3.74,0.655,3.955e7,0,156.01,0.473,0.473,0.344,0.023,0.106,0.004,0.017,1.433e-4,0,0,0,0,-7.797e-8,0.028,13.081,134.391,88.034,0.031,2.342,3.428,817.195,333.377,0.05,0.317
7.89,1791.132,217.472,-15.894,217.529,15.895,36.153,0.007,36.153,0.011,5.014,0.161,28.61,-80.6,9.787,0.046,-1.147e-6,0.091,-2.482e-4,2.532e4,3342,18.647,0.059,216.515,167.67,3.734,0.653,3.937e7,0,154.619,0.473,0.473,0.344,0.023,0.106,0.006,0.022,-4.455e-4,0,0,0,0,3.636e-7,0.028,13.081,134.391,88.036,0.028,2.27,3.358,816.093,333.334,0.05,0.319
